{"INFO":[{"eventype_id":"ALRO","tipo_eventos":"Robo","descr":"ROBO PERIMETRAL","alarm_server_date":{"date":"2022-07-04 18:53:41.193000","timezone_type":3,"timezone":"Europe\/Berlin"},"contrato":"27","longitude":"-58.78843800","latitude":"-34.54106500","zip_code":null,"city_name":"JOSE C. PAZ","state_id":"BA ","geo_code":null,"job_no":null,"jobtype_id":null,"jobres_id":null,"color":"yellow"},{"eventype_id":"ALRO","tipo_eventos":"Robo","descr":"ROBO ENTRADA\/SALIDA","alarm_server_date":{"date":"2022-07-04 18:54:37.753000","timezone_type":3,"timezone":"Europe\/Berlin"},"contrato":"4","longitude":"-58.53193600","latitude":"-34.58257400","zip_code":null,"city_name":"SAN MARTIN","state_id":"BA ","geo_code":null,"job_no":null,"jobtype_id":null,"jobres_id":null,"color":"yellow"},{"eventype_id":"ALRO","tipo_eventos":"Robo","descr":"ROBO PERIMETRAL","alarm_server_date":{"date":"2022-07-04 18:56:31.403000","timezone_type":3,"timezone":"Europe\/Berlin"},"contrato":"13","longitude":"-58.37574200","latitude":"-34.64011300","zip_code":null,"city_name":"BARRACAS","state_id":"BA ","geo_code":null,"job_no":null,"jobtype_id":null,"jobres_id":null,"color":"yellow"},{"eventype_id":"ALRO","tipo_eventos":"Robo","descr":"ROBO ENTRADA\/SALIDA","alarm_server_date":{"date":"2022-07-04 18:54:05.403000","timezone_type":3,"timezone":"Europe\/Berlin"},"contrato":"30","longitude":"-68.11566525","latitude":"-38.94099466","zip_code":null,"city_name":"NEUQUEN","state_id":"NQ ","geo_code":null,"job_no":null,"jobtype_id":null,"jobres_id":null,"color":"yellow"},{"eventype_id":"ALRO","tipo_eventos":"Robo","descr":"ROBO ENTRADA\/SALIDA","alarm_server_date":{"date":"2022-07-04 18:54:59.347000","timezone_type":3,"timezone":"Europe\/Berlin"},"contrato":"100","longitude":"-58.69641600","latitude":"-34.66166500","zip_code":null,"city_name":"SAN ANTONIO DE PADUA","state_id":"BA ","geo_code":null,"job_no":null,"jobtype_id":null,"jobres_id":null,"color":"yellow"},{"eventype_id":"ALRO","tipo_eventos":"Robo","descr":"ROBO VIDEO VERIFICACION","alarm_server_date":{"date":"2022-07-04 18:54:16.757000","timezone_type":3,"timezone":"Europe\/Berlin"},"contrato":"30","longitude":"-57.62787700","latitude":"-38.15640800","zip_code":null,"city_name":"MAR DEL PLATA","state_id":"BA ","geo_code":null,"job_no":null,"jobtype_id":null,"jobres_id":null,"color":"yellow"},{"eventype_id":"ALRO","tipo_eventos":"Robo","descr":"ROBO ENTRADA\/SALIDA","alarm_server_date":{"date":"2022-07-04 18:58:21.993000","timezone_type":3,"timezone":"Europe\/Berlin"},"contrato":"4","longitude":"-58.53193600","latitude":"-34.58257400","zip_code":null,"city_name":"SAN MARTIN","state_id":"BA ","geo_code":null,"job_no":null,"jobtype_id":null,"jobres_id":null,"color":"yellow"},{"eventype_id":"ALRO","tipo_eventos":"Robo","descr":"ROBO ENTRADA\/SALIDA","alarm_server_date":{"date":"2022-07-04 18:55:25.200000","timezone_type":3,"timezone":"Europe\/Berlin"},"contrato":"4","longitude":"-58.53193600","latitude":"-34.58257400","zip_code":null,"city_name":"SAN MARTIN","state_id":"BA ","geo_code":null,"job_no":null,"jobtype_id":null,"jobres_id":null,"color":"yellow"},{"eventype_id":"ALRO","tipo_eventos":"Robo","descr":"ROBO","alarm_server_date":{"date":"2022-07-04 18:59:03.030000","timezone_type":3,"timezone":"Europe\/Berlin"},"contrato":"13","longitude":"-58.42316900","latitude":"-34.57518900","zip_code":null,"city_name":"PALERMO","state_id":"BA ","geo_code":null,"job_no":null,"jobtype_id":null,"jobres_id":null,"color":"yellow"},{"eventype_id":"ALRO","tipo_eventos":"Robo","descr":"ROBO ENTRADA\/SALIDA","alarm_server_date":{"date":"2022-07-04 18:57:15.963000","timezone_type":3,"timezone":"Europe\/Berlin"},"contrato":"35","longitude":"-58.55563900","latitude":"-34.48512300","zip_code":null,"city_name":"SAN ISIDRO","state_id":"BA ","geo_code":null,"job_no":null,"jobtype_id":null,"jobres_id":null,"color":"yellow"},{"eventype_id":"ALRO","tipo_eventos":"Robo","descr":"ROBO","alarm_server_date":{"date":"2022-07-04 18:55:35.233000","timezone_type":3,"timezone":"Europe\/Berlin"},"contrato":"30","longitude":"-60.60373600","latitude":"-33.05560300","zip_code":null,"city_name":"ALVEAR","state_id":"SF ","geo_code":null,"job_no":null,"jobtype_id":null,"jobres_id":null,"color":"yellow"},{"eventype_id":"ALPA","tipo_eventos":"P\u00e1nico","descr":"ATRACO","alarm_server_date":{"date":"2022-07-04 18:57:38.843000","timezone_type":3,"timezone":"Europe\/Berlin"},"contrato":"100","longitude":".00000000","latitude":".00000000","zip_code":"","city_name":"CIUDAD EVITA","state_id":"BA ","geo_code":"","job_no":null,"jobtype_id":null,"jobres_id":null,"color":"yellow"},{"eventype_id":"ALRO","tipo_eventos":"Robo","descr":"ROBO PERIMETRAL","alarm_server_date":{"date":"2022-07-04 18:59:27.087000","timezone_type":3,"timezone":"Europe\/Berlin"},"contrato":"6","longitude":"-58.57555700","latitude":"-34.65221600","zip_code":"","city_name":"SAN JUSTO","state_id":"BA ","geo_code":"","job_no":null,"jobtype_id":null,"jobres_id":null,"color":"yellow"},{"eventype_id":"ALRO","tipo_eventos":"Robo","descr":"ROBO","alarm_server_date":{"date":"2022-07-04 18:57:05.527000","timezone_type":3,"timezone":"Europe\/Berlin"},"contrato":"10","longitude":"-58.63135900","latitude":"-34.60030000","zip_code":"","city_name":"HURLINGHAM","state_id":"BA ","geo_code":"","job_no":200632335,"jobtype_id":"P     ","jobres_id":"1A","color":"yellow"},{"eventype_id":"ALRO","tipo_eventos":"Robo","descr":"ROBO PERIMETRAL","alarm_server_date":{"date":"2022-07-04 19:05:49.023000","timezone_type":3,"timezone":"Europe\/Berlin"},"contrato":"13","longitude":"-58.37574200","latitude":"-34.64011300","zip_code":null,"city_name":"BARRACAS","state_id":"BA ","geo_code":null,"job_no":null,"jobtype_id":null,"jobres_id":null,"color":"yellow"},{"eventype_id":"ALRO","tipo_eventos":"Robo","descr":"ROBO PERIMETRAL","alarm_server_date":{"date":"2022-07-04 19:01:07.703000","timezone_type":3,"timezone":"Europe\/Berlin"},"contrato":"101","longitude":"-58.44968414","latitude":"-34.64409255","zip_code":null,"city_name":"FLORES","state_id":"BA ","geo_code":null,"job_no":null,"jobtype_id":null,"jobres_id":null,"color":"yellow"},{"eventype_id":"ALRO","tipo_eventos":"Robo","descr":"ROBO PERIMETRAL","alarm_server_date":{"date":"2022-07-04 19:05:53.277000","timezone_type":3,"timezone":"Europe\/Berlin"},"contrato":"101","longitude":"-58.44968414","latitude":"-34.64409255","zip_code":null,"city_name":"FLORES","state_id":"BA ","geo_code":null,"job_no":null,"jobtype_id":null,"jobres_id":null,"color":"yellow"},{"eventype_id":"ALSA","tipo_eventos":"Sabotaje","descr":"SABOTAJE PA","alarm_server_date":{"date":"2022-07-04 19:05:31.080000","timezone_type":3,"timezone":"Europe\/Berlin"},"contrato":"30","longitude":"-60.57508200","latitude":"-31.59526200","zip_code":null,"city_name":"ARROYO LEYES","state_id":"SF ","geo_code":null,"job_no":null,"jobtype_id":null,"jobres_id":null,"color":"yellow"},{"eventype_id":"ALRO","tipo_eventos":"Robo","descr":"ROBO PERIMETRAL","alarm_server_date":{"date":"2022-07-04 18:59:38.057000","timezone_type":3,"timezone":"Europe\/Berlin"},"contrato":"100","longitude":"-58.51733600","latitude":"-34.65700600","zip_code":null,"city_name":"MATADEROS","state_id":"BA ","geo_code":null,"job_no":null,"jobtype_id":null,"jobres_id":null,"color":"yellow"},{"eventype_id":"ALRO","tipo_eventos":"Robo","descr":"ALARMA DE ROBO C \/ REST.","alarm_server_date":{"date":"2022-07-04 18:57:43.250000","timezone_type":3,"timezone":"Europe\/Berlin"},"contrato":"30","longitude":"-58.66218100","latitude":"-34.45048100","zip_code":null,"city_name":"GENERAL PACHECO","state_id":"BA ","geo_code":null,"job_no":null,"jobtype_id":null,"jobres_id":null,"color":"yellow"},{"eventype_id":"ALRO","tipo_eventos":"Robo","descr":"ALARMA DE ROBO C \/ REST.","alarm_server_date":{"date":"2022-07-04 18:57:53.743000","timezone_type":3,"timezone":"Europe\/Berlin"},"contrato":"30","longitude":"-58.66218100","latitude":"-34.45048100","zip_code":null,"city_name":"GENERAL PACHECO","state_id":"BA ","geo_code":null,"job_no":null,"jobtype_id":null,"jobres_id":null,"color":"yellow"},{"eventype_id":"ALRO","tipo_eventos":"Robo","descr":"ROBO PERIMETRAL","alarm_server_date":{"date":"2022-07-04 18:58:58.670000","timezone_type":3,"timezone":"Europe\/Berlin"},"contrato":"30","longitude":"-58.53871300","latitude":"-34.52521300","zip_code":null,"city_name":"CARAPACHAY","state_id":"BA ","geo_code":null,"job_no":null,"jobtype_id":null,"jobres_id":null,"color":"yellow"},{"eventype_id":"ALRO","tipo_eventos":"Robo","descr":"ROBO","alarm_server_date":{"date":"2022-07-04 18:56:57.483000","timezone_type":3,"timezone":"Europe\/Berlin"},"contrato":"30","longitude":"-60.60373600","latitude":"-33.05560300","zip_code":null,"city_name":"ALVEAR","state_id":"SF ","geo_code":null,"job_no":null,"jobtype_id":null,"jobres_id":null,"color":"yellow"},{"eventype_id":"ALRO","tipo_eventos":"Robo","descr":"ROBO","alarm_server_date":{"date":"2022-07-04 18:58:05.257000","timezone_type":3,"timezone":"Europe\/Berlin"},"contrato":"30","longitude":"-60.60373600","latitude":"-33.05560300","zip_code":null,"city_name":"ALVEAR","state_id":"SF ","geo_code":null,"job_no":null,"jobtype_id":null,"jobres_id":null,"color":"yellow"},{"eventype_id":"ALRO","tipo_eventos":"Robo","descr":"ROBO","alarm_server_date":{"date":"2022-07-04 18:58:09.423000","timezone_type":3,"timezone":"Europe\/Berlin"},"contrato":"24","longitude":"-58.31241900","latitude":"-34.69382300","zip_code":null,"city_name":"WILDE","state_id":"BA ","geo_code":null,"job_no":null,"jobtype_id":null,"jobres_id":null,"color":"yellow"},{"eventype_id":"ALSA","tipo_eventos":"Sabotaje","descr":"SABOTAJE SENSOR","alarm_server_date":{"date":"2022-07-04 18:57:19.310000","timezone_type":3,"timezone":"Europe\/Berlin"},"contrato":"5","longitude":"-58.65966900","latitude":"-34.46112750","zip_code":null,"city_name":"GRAL PACHECO","state_id":"BA ","geo_code":null,"job_no":null,"jobtype_id":null,"jobres_id":null,"color":"yellow"},{"eventype_id":"ALRO","tipo_eventos":"Robo","descr":"ROBO","alarm_server_date":{"date":"2022-07-04 18:59:20.430000","timezone_type":3,"timezone":"Europe\/Berlin"},"contrato":"30","longitude":"-68.04532500","latitude":"-38.96747000","zip_code":null,"city_name":"NEUQUEN","state_id":"NQ ","geo_code":null,"job_no":null,"jobtype_id":null,"jobres_id":null,"color":"yellow"},{"eventype_id":"ALRO","tipo_eventos":"Robo","descr":"ROBO ENTRADA\/SALIDA","alarm_server_date":{"date":"2022-07-04 18:58:02.477000","timezone_type":3,"timezone":"Europe\/Berlin"},"contrato":"4","longitude":"-58.55140100","latitude":"-34.57038000","zip_code":"1651","city_name":"SAN ANDRES","state_id":"BA ","geo_code":"16","job_no":null,"jobtype_id":null,"jobres_id":null,"color":"yellow"},{"eventype_id":"ALRO","tipo_eventos":"Robo","descr":"ROBO","alarm_server_date":{"date":"2022-07-04 19:00:58.230000","timezone_type":3,"timezone":"Europe\/Berlin"},"contrato":"30","longitude":"-58.04138700","latitude":"34.95846200","zip_code":"1900","city_name":"LA PLATA","state_id":"BA ","geo_code":"19","job_no":null,"jobtype_id":null,"jobres_id":null,"color":"yellow"},{"eventype_id":"ALRO","tipo_eventos":"Robo","descr":"ROBO","alarm_server_date":{"date":"2022-07-04 19:05:24.350000","timezone_type":3,"timezone":"Europe\/Berlin"},"contrato":"30","longitude":"-57.90986950","latitude":"-34.93160764","zip_code":"1900","city_name":"LA PLATA","state_id":"BA ","geo_code":"19","job_no":null,"jobtype_id":null,"jobres_id":null,"color":"yellow"},{"eventype_id":"ALRO","tipo_eventos":"Robo","descr":"ROBO PERIMETRAL","alarm_server_date":{"date":"2022-07-04 19:19:31.473000","timezone_type":3,"timezone":"Europe\/Berlin"},"contrato":"15","longitude":"-58.53047700","latitude":"-34.58436200","zip_code":null,"city_name":"VILLA LYNCH","state_id":"BA ","geo_code":null,"job_no":null,"jobtype_id":null,"jobres_id":null,"color":"yellow"},{"eventype_id":"ALRO","tipo_eventos":"Robo","descr":"ROBO","alarm_server_date":{"date":"2022-07-04 19:09:15.213000","timezone_type":3,"timezone":"Europe\/Berlin"},"contrato":"14","longitude":"-58.35194015","latitude":"-34.67307662","zip_code":null,"city_name":"AVELLANEDA","state_id":"BA ","geo_code":null,"job_no":null,"jobtype_id":null,"jobres_id":null,"color":"yellow"},{"eventype_id":"ALRO","tipo_eventos":"Robo","descr":"ROBO","alarm_server_date":{"date":"2022-07-04 19:19:44.793000","timezone_type":3,"timezone":"Europe\/Berlin"},"contrato":"11","longitude":"-58.46980285","latitude":"-34.54680633","zip_code":null,"city_name":"NU\u00d1EZ","state_id":"BA ","geo_code":null,"job_no":null,"jobtype_id":null,"jobres_id":null,"color":"yellow"},{"eventype_id":"ALRO","tipo_eventos":"Robo","descr":"ROBO","alarm_server_date":{"date":"2022-07-04 19:17:17.723000","timezone_type":3,"timezone":"Europe\/Berlin"},"contrato":"20","longitude":"-58.46793746","latitude":"-34.81918334","zip_code":null,"city_name":"MONTE GRANDE","state_id":"BA ","geo_code":null,"job_no":200632343,"jobtype_id":"P     ","jobres_id":"1A","color":"yellow"},{"eventype_id":"ALRO","tipo_eventos":"Robo","descr":"ROBO","alarm_server_date":{"date":"2022-07-04 19:17:21.020000","timezone_type":3,"timezone":"Europe\/Berlin"},"contrato":"25","longitude":"-58.68070000","latitude":"-34.38330000","zip_code":null,"city_name":"BENAVIDEZ","state_id":"BA ","geo_code":null,"job_no":null,"jobtype_id":null,"jobres_id":null,"color":"yellow"},{"eventype_id":"ALRO","tipo_eventos":"Robo","descr":"ROBO PERIMETRAL","alarm_server_date":{"date":"2022-07-04 19:11:40.447000","timezone_type":3,"timezone":"Europe\/Berlin"},"contrato":"100","longitude":"-58.39250700","latitude":"-34.70954800","zip_code":null,"city_name":"LANUS","state_id":"BA ","geo_code":null,"job_no":null,"jobtype_id":null,"jobres_id":null,"color":"yellow"},{"eventype_id":"ALRO","tipo_eventos":"Robo","descr":"ROBO ENTRADA\/SALIDA","alarm_server_date":{"date":"2022-07-04 19:18:12.913000","timezone_type":3,"timezone":"Europe\/Berlin"},"contrato":"4","longitude":"-58.53193600","latitude":"-34.58257400","zip_code":null,"city_name":"SAN MARTIN","state_id":"BA ","geo_code":null,"job_no":200632348,"jobtype_id":"P     ","jobres_id":"1A","color":"yellow"},{"eventype_id":"ALRO","tipo_eventos":"Robo","descr":"ROBO ENTRADA\/SALIDA","alarm_server_date":{"date":"2022-07-04 19:07:29.647000","timezone_type":3,"timezone":"Europe\/Berlin"},"contrato":"9","longitude":"-58.50877900","latitude":"-34.54601200","zip_code":null,"city_name":"VILLA MARTELLI","state_id":"BA ","geo_code":null,"job_no":null,"jobtype_id":null,"jobres_id":null,"color":"yellow"},{"eventype_id":"ALPA","tipo_eventos":"P\u00e1nico","descr":"ATRACO","alarm_server_date":{"date":"2022-07-04 19:13:55.643000","timezone_type":3,"timezone":"Europe\/Berlin"},"contrato":"12","longitude":"-58.48117900","latitude":"-34.58646500","zip_code":null,"city_name":"PARQUE CHAS","state_id":"BA ","geo_code":null,"job_no":200632342,"jobtype_id":"P     ","jobres_id":"1B","color":"yellow"},{"eventype_id":"ALRO","tipo_eventos":"Robo","descr":"ROBO","alarm_server_date":{"date":"2022-07-04 19:10:08.030000","timezone_type":3,"timezone":"Europe\/Berlin"},"contrato":"33","longitude":"-58.49454600","latitude":"-34.51933900","zip_code":null,"city_name":"OLIVOS","state_id":"BA ","geo_code":null,"job_no":null,"jobtype_id":null,"jobres_id":null,"color":"yellow"},{"eventype_id":"ALRO","tipo_eventos":"Robo","descr":"ROBO","alarm_server_date":{"date":"2022-07-04 19:12:11.077000","timezone_type":3,"timezone":"Europe\/Berlin"},"contrato":"30","longitude":"-68.82991500","latitude":"-33.03465700","zip_code":null,"city_name":"RUSSEL","state_id":"MZ ","geo_code":null,"job_no":null,"jobtype_id":null,"jobres_id":null,"color":"yellow"},{"eventype_id":"ALRO","tipo_eventos":"Robo","descr":"ROBO","alarm_server_date":{"date":"2022-07-04 19:13:15.653000","timezone_type":3,"timezone":"Europe\/Berlin"},"contrato":"30","longitude":"-58.65289700","latitude":"-34.63788100","zip_code":null,"city_name":"CASTELAR","state_id":"BA ","geo_code":null,"job_no":null,"jobtype_id":null,"jobres_id":null,"color":"yellow"},{"eventype_id":"ALRO","tipo_eventos":"Robo","descr":"ROBO PERIMETRAL","alarm_server_date":{"date":"2022-07-04 19:03:12.117000","timezone_type":3,"timezone":"Europe\/Berlin"},"contrato":"25","longitude":"-58.72862200","latitude":"-34.41471700","zip_code":null,"city_name":"GARIN","state_id":"BA ","geo_code":null,"job_no":200632337,"jobtype_id":"P     ","jobres_id":null,"color":"yellow"},{"eventype_id":"ALRO","tipo_eventos":"Robo","descr":"ROBO","alarm_server_date":{"date":"2022-07-04 19:01:13.670000","timezone_type":3,"timezone":"Europe\/Berlin"},"contrato":"29","longitude":"-58.50258700","latitude":"-34.50339100","zip_code":null,"city_name":"OLIVOS","state_id":"BA ","geo_code":null,"job_no":null,"jobtype_id":null,"jobres_id":null,"color":"yellow"},{"eventype_id":"ALRO","tipo_eventos":"Robo","descr":"ROBO","alarm_server_date":{"date":"2022-07-04 19:03:14.663000","timezone_type":3,"timezone":"Europe\/Berlin"},"contrato":"19","longitude":"-58.04275400","latitude":"-34.88399700","zip_code":null,"city_name":"CITY BELL","state_id":"BA ","geo_code":null,"job_no":null,"jobtype_id":null,"jobres_id":null,"color":"yellow"},{"eventype_id":"ALRO","tipo_eventos":"Robo","descr":"ROBO ENTRADA\/SALIDA","alarm_server_date":{"date":"2022-07-04 19:04:38.690000","timezone_type":3,"timezone":"Europe\/Berlin"},"contrato":"30","longitude":"-68.08504700","latitude":"-38.95360600","zip_code":null,"city_name":"NEUQUEN","state_id":"NQ ","geo_code":null,"job_no":null,"jobtype_id":null,"jobres_id":null,"color":"yellow"},{"eventype_id":"ALSA","tipo_eventos":"Sabotaje","descr":"SABOTAJE SENSOR","alarm_server_date":{"date":"2022-07-04 19:05:01.190000","timezone_type":3,"timezone":"Europe\/Berlin"},"contrato":"30","longitude":"-58.72461400","latitude":"-34.53330200","zip_code":null,"city_name":"SAN MIGUEL","state_id":"BA ","geo_code":null,"job_no":null,"jobtype_id":null,"jobres_id":null,"color":"yellow"},{"eventype_id":"ALRO","tipo_eventos":"Robo","descr":"ALARMA DE ROBO C \/ REST.","alarm_server_date":{"date":"2022-07-04 18:59:40.990000","timezone_type":3,"timezone":"Europe\/Berlin"},"contrato":"30","longitude":"-58.66218100","latitude":"-34.45048100","zip_code":null,"city_name":"GENERAL PACHECO","state_id":"BA ","geo_code":null,"job_no":null,"jobtype_id":null,"jobres_id":null,"color":"yellow"},{"eventype_id":"ALRO","tipo_eventos":"Robo","descr":"ALARMA DE ROBO C \/ REST.","alarm_server_date":{"date":"2022-07-04 18:59:51.650000","timezone_type":3,"timezone":"Europe\/Berlin"},"contrato":"30","longitude":"-58.66218100","latitude":"-34.45048100","zip_code":null,"city_name":"GENERAL PACHECO","state_id":"BA ","geo_code":null,"job_no":null,"jobtype_id":null,"jobres_id":null,"color":"yellow"},{"eventype_id":"ALRO","tipo_eventos":"Robo","descr":"ALARMA DE ROBO C \/ REST.","alarm_server_date":{"date":"2022-07-04 19:00:02.747000","timezone_type":3,"timezone":"Europe\/Berlin"},"contrato":"30","longitude":"-58.66218100","latitude":"-34.45048100","zip_code":null,"city_name":"GENERAL PACHECO","state_id":"BA ","geo_code":null,"job_no":null,"jobtype_id":null,"jobres_id":null,"color":"yellow"},{"eventype_id":"ALSA","tipo_eventos":"Sabotaje","descr":"SABOTAJE SENSOR","alarm_server_date":{"date":"2022-07-04 19:01:34.370000","timezone_type":3,"timezone":"Europe\/Berlin"},"contrato":"30","longitude":"-58.36623900","latitude":"-34.62039000","zip_code":null,"city_name":"SAN TELMO","state_id":"BA ","geo_code":null,"job_no":null,"jobtype_id":null,"jobres_id":null,"color":"yellow"},{"eventype_id":"ALSA","tipo_eventos":"Sabotaje","descr":"SABOTAJE SENSOR","alarm_server_date":{"date":"2022-07-04 19:05:37.047000","timezone_type":3,"timezone":"Europe\/Berlin"},"contrato":"30","longitude":"-58.36623900","latitude":"-34.62039000","zip_code":null,"city_name":"SAN TELMO","state_id":"BA ","geo_code":null,"job_no":null,"jobtype_id":null,"jobres_id":null,"color":"yellow"},{"eventype_id":"ALSA","tipo_eventos":"Sabotaje","descr":"SABOTAJE SENSOR","alarm_server_date":{"date":"2022-07-04 19:07:02.100000","timezone_type":3,"timezone":"Europe\/Berlin"},"contrato":"30","longitude":"-58.36623900","latitude":"-34.62039000","zip_code":null,"city_name":"SAN TELMO","state_id":"BA ","geo_code":null,"job_no":null,"jobtype_id":null,"jobres_id":null,"color":"yellow"},{"eventype_id":"ALRO","tipo_eventos":"Robo","descr":"ROBO","alarm_server_date":{"date":"2022-07-04 19:05:28.550000","timezone_type":3,"timezone":"Europe\/Berlin"},"contrato":"30","longitude":"-60.73563610","latitude":"-32.86622560","zip_code":null,"city_name":"IBARLUCEA","state_id":"SF ","geo_code":null,"job_no":null,"jobtype_id":null,"jobres_id":null,"color":"yellow"},{"eventype_id":"ALRO","tipo_eventos":"Robo","descr":"ROBO VIDEO VERIFICACION","alarm_server_date":{"date":"2022-07-04 19:06:35.047000","timezone_type":3,"timezone":"Europe\/Berlin"},"contrato":"30","longitude":"-58.75078800","latitude":"-34.51968300","zip_code":null,"city_name":"JOSE C. PAZ","state_id":"BA ","geo_code":null,"job_no":null,"jobtype_id":null,"jobres_id":null,"color":"yellow"},{"eventype_id":"ALOT","tipo_eventos":"Otras Alertas NO Robo","descr":"CHOQUE VEHICULAR","alarm_server_date":{"date":"2022-07-04 19:00:06.230000","timezone_type":3,"timezone":"Europe\/Berlin"},"contrato":"100","longitude":"-58.47940463","latitude":"-34.79190803","zip_code":null,"city_name":"MONTE GRANDE","state_id":"BA ","geo_code":null,"job_no":null,"jobtype_id":null,"jobres_id":null,"color":"yellow"},{"eventype_id":"ALRO","tipo_eventos":"Robo","descr":"ROBO","alarm_server_date":{"date":"2022-07-04 19:03:59.363000","timezone_type":3,"timezone":"Europe\/Berlin"},"contrato":"30","longitude":"-58.56262508","latitude":"-34.65924571","zip_code":null,"city_name":"RAMOS MEJIA","state_id":"BA ","geo_code":null,"job_no":null,"jobtype_id":null,"jobres_id":null,"color":"yellow"},{"eventype_id":"ALRO","tipo_eventos":"Robo","descr":"ALARMA ZONA PA","alarm_server_date":{"date":"2022-07-04 19:05:40.657000","timezone_type":3,"timezone":"Europe\/Berlin"},"contrato":"14","longitude":"-58.41507000","latitude":"-34.63378300","zip_code":"","city_name":"BOEDO","state_id":"BA ","geo_code":"","job_no":200632339,"jobtype_id":"P     ","jobres_id":"1A","color":"yellow"},{"eventype_id":"ALRO","tipo_eventos":"Robo","descr":"ROBO ENTRADA\/SALIDA","alarm_server_date":{"date":"2022-07-04 19:04:14.263000","timezone_type":3,"timezone":"Europe\/Berlin"},"contrato":"16","longitude":"-58.38532500","latitude":"-34.59445600","zip_code":"","city_name":"RETIRO","state_id":"BA ","geo_code":"","job_no":200632338,"jobtype_id":"P     ","jobres_id":"1A","color":"yellow"},{"eventype_id":"ALRO","tipo_eventos":"Robo","descr":"ROBO","alarm_server_date":{"date":"2022-07-04 19:02:00.713000","timezone_type":3,"timezone":"Europe\/Berlin"},"contrato":"4","longitude":null,"latitude":null,"zip_code":"","city_name":"BOULOGNE","state_id":"BA ","geo_code":"","job_no":null,"jobtype_id":null,"jobres_id":null,"color":"yellow"},{"eventype_id":"ALSA","tipo_eventos":"Sabotaje","descr":"SABOTAJE SENSOR","alarm_server_date":{"date":"2022-07-04 19:00:14.043000","timezone_type":3,"timezone":"Europe\/Berlin"},"contrato":"15","longitude":"-58.56506450","latitude":"-34.59477957","zip_code":"1678","city_name":"CASEROS","state_id":"BA ","geo_code":"16","job_no":null,"jobtype_id":null,"jobres_id":null,"color":"yellow"},{"eventype_id":"ALRO","tipo_eventos":"Robo","descr":"ROBO","alarm_server_date":{"date":"2022-07-04 19:03:48.817000","timezone_type":3,"timezone":"Europe\/Berlin"},"contrato":"8","longitude":"-58.37705000","latitude":"-34.70663300","zip_code":"1824","city_name":"LANUS","state_id":"BA ","geo_code":"18","job_no":null,"jobtype_id":null,"jobres_id":null,"color":"yellow"},{"eventype_id":"ALRO","tipo_eventos":"Robo","descr":"ROBO ENTRADA\/SALIDA","alarm_server_date":{"date":"2022-07-04 19:45:15.177000","timezone_type":3,"timezone":"Europe\/Berlin"},"contrato":"100","longitude":"-58.50012500","latitude":"-34.66434200","zip_code":null,"city_name":"MATADEROS","state_id":"BA ","geo_code":null,"job_no":null,"jobtype_id":null,"jobres_id":null,"color":"yellow"},{"eventype_id":"ALRO","tipo_eventos":"Robo","descr":"ROBO PERIMETRAL","alarm_server_date":{"date":"2022-07-04 19:35:18.627000","timezone_type":3,"timezone":"Europe\/Berlin"},"contrato":"6","longitude":"-58.55853100","latitude":"-34.68721100","zip_code":null,"city_name":"SAN JUSTO","state_id":"BA ","geo_code":null,"job_no":null,"jobtype_id":null,"jobres_id":null,"color":"yellow"},{"eventype_id":"ALSA","tipo_eventos":"Sabotaje","descr":"SABOTAJE PA","alarm_server_date":{"date":"2022-07-04 19:35:48.160000","timezone_type":3,"timezone":"Europe\/Berlin"},"contrato":"33","longitude":"-58.50453949","latitude":"-34.53799438","zip_code":null,"city_name":"FLORIDA","state_id":"BA ","geo_code":null,"job_no":200632352,"jobtype_id":"P     ","jobres_id":"1A","color":"yellow"},{"eventype_id":"ALRO","tipo_eventos":"Robo","descr":"ROBO","alarm_server_date":{"date":"2022-07-04 19:31:48.350000","timezone_type":3,"timezone":"Europe\/Berlin"},"contrato":"100","longitude":"-58.55709457","latitude":"-34.61471939","zip_code":null,"city_name":"CASEROS","state_id":"BA ","geo_code":null,"job_no":null,"jobtype_id":null,"jobres_id":null,"color":"yellow"},{"eventype_id":"ALRO","tipo_eventos":"Robo","descr":"ROBO ENTRADA\/SALIDA","alarm_server_date":{"date":"2022-07-04 19:27:31.853000","timezone_type":3,"timezone":"Europe\/Berlin"},"contrato":"3","longitude":"-58.58363700","latitude":"-34.67996700","zip_code":null,"city_name":"SAN JUSTO","state_id":"BA ","geo_code":null,"job_no":200632350,"jobtype_id":"P     ","jobres_id":"1B","color":"yellow"},{"eventype_id":"ALRO","tipo_eventos":"Robo","descr":"ROBO INTERIOR","alarm_server_date":{"date":"2022-07-04 19:35:57.173000","timezone_type":3,"timezone":"Europe\/Berlin"},"contrato":"23","longitude":"-58.48719024","latitude":"-34.61050796","zip_code":null,"city_name":"VELEZ SARSFIELD","state_id":"BA ","geo_code":null,"job_no":null,"jobtype_id":null,"jobres_id":null,"color":"yellow"},{"eventype_id":"ALRO","tipo_eventos":"Robo","descr":"ROBO ENTRADA\/SALIDA","alarm_server_date":{"date":"2022-07-04 19:40:56.807000","timezone_type":3,"timezone":"Europe\/Berlin"},"contrato":"23","longitude":"-58.48719024","latitude":"-34.61050796","zip_code":null,"city_name":"VELEZ SARSFIELD","state_id":"BA ","geo_code":null,"job_no":null,"jobtype_id":null,"jobres_id":null,"color":"yellow"},{"eventype_id":"ALRO","tipo_eventos":"Robo","descr":"ROBO ENTRADA\/SALIDA","alarm_server_date":{"date":"2022-07-04 19:23:16.477000","timezone_type":3,"timezone":"Europe\/Berlin"},"contrato":"16","longitude":"-34.59116800","latitude":"-58.38738400","zip_code":null,"city_name":"RECOLETA","state_id":"BA ","geo_code":null,"job_no":null,"jobtype_id":null,"jobres_id":null,"color":"yellow"},{"eventype_id":"ALRO","tipo_eventos":"Robo","descr":"ROBO","alarm_server_date":{"date":"2022-07-04 19:24:52.430000","timezone_type":3,"timezone":"Europe\/Berlin"},"contrato":"100","longitude":"-58.54576700","latitude":"-34.71615600","zip_code":null,"city_name":"CIUDAD EVITA","state_id":"BA ","geo_code":null,"job_no":null,"jobtype_id":null,"jobres_id":null,"color":"yellow"},{"eventype_id":"ALRO","tipo_eventos":"Robo","descr":"ROBO ENTRADA\/SALIDA","alarm_server_date":{"date":"2022-07-04 19:27:10.927000","timezone_type":3,"timezone":"Europe\/Berlin"},"contrato":"26","longitude":"-58.48244000","latitude":"-34.62071100","zip_code":null,"city_name":"VILLA SANTA RITA","state_id":"BA ","geo_code":null,"job_no":null,"jobtype_id":null,"jobres_id":null,"color":"yellow"},{"eventype_id":"ALRO","tipo_eventos":"Robo","descr":"ROBO","alarm_server_date":{"date":"2022-07-04 19:47:43.410000","timezone_type":3,"timezone":"Europe\/Berlin"},"contrato":"22","longitude":"-57.62258800","latitude":"-37.96230200","zip_code":null,"city_name":"MAR DEL PLATA","state_id":"MDQ","geo_code":null,"job_no":null,"jobtype_id":null,"jobres_id":null,"color":"yellow"},{"eventype_id":"ALRO","tipo_eventos":"Robo","descr":"ROBO","alarm_server_date":{"date":"2022-07-04 19:30:22.860000","timezone_type":3,"timezone":"Europe\/Berlin"},"contrato":"25","longitude":null,"latitude":null,"zip_code":null,"city_name":"ACASSUSO","state_id":"BA ","geo_code":null,"job_no":null,"jobtype_id":null,"jobres_id":null,"color":"yellow"},{"eventype_id":"ALRO","tipo_eventos":"Robo","descr":"ROBO","alarm_server_date":{"date":"2022-07-04 19:24:39.740000","timezone_type":3,"timezone":"Europe\/Berlin"},"contrato":"100","longitude":"-58.53806500","latitude":"-34.64326200","zip_code":null,"city_name":"CIUDADELA","state_id":"BA ","geo_code":null,"job_no":null,"jobtype_id":null,"jobres_id":null,"color":"yellow"},{"eventype_id":"ALRO","tipo_eventos":"Robo","descr":"ROBO","alarm_server_date":{"date":"2022-07-04 19:35:16.300000","timezone_type":3,"timezone":"Europe\/Berlin"},"contrato":"30","longitude":"-58.95276859","latitude":"-27.47780190","zip_code":null,"city_name":"RESISTENCIA","state_id":"CH ","geo_code":null,"job_no":null,"jobtype_id":null,"jobres_id":null,"color":"yellow"},{"eventype_id":"ALRO","tipo_eventos":"Robo","descr":"ROBO PERIMETRAL","alarm_server_date":{"date":"2022-07-04 19:19:06.270000","timezone_type":3,"timezone":"Europe\/Berlin"},"contrato":"17","longitude":null,"latitude":null,"zip_code":null,"city_name":"MORON","state_id":"BA ","geo_code":null,"job_no":null,"jobtype_id":null,"jobres_id":null,"color":"yellow"},{"eventype_id":"ALRO","tipo_eventos":"Robo","descr":"ROBO","alarm_server_date":{"date":"2022-07-04 19:11:22.647000","timezone_type":3,"timezone":"Europe\/Berlin"},"contrato":"30","longitude":"-57.95591000","latitude":"-34.90915500","zip_code":null,"city_name":"LA PLATA","state_id":"BA ","geo_code":null,"job_no":null,"jobtype_id":null,"jobres_id":null,"color":"yellow"},{"eventype_id":"ALRO","tipo_eventos":"Robo","descr":"ROBO","alarm_server_date":{"date":"2022-07-04 19:15:45.913000","timezone_type":3,"timezone":"Europe\/Berlin"},"contrato":"30","longitude":"-57.95591000","latitude":"-34.90915500","zip_code":null,"city_name":"LA PLATA","state_id":"BA ","geo_code":null,"job_no":null,"jobtype_id":null,"jobres_id":null,"color":"yellow"},{"eventype_id":"ALRO","tipo_eventos":"Robo","descr":"REMOLQUE MOVIL ACTIVADO","alarm_server_date":{"date":"2022-07-04 19:18:41.047000","timezone_type":3,"timezone":"Europe\/Berlin"},"contrato":"100","longitude":"-58.37392100","latitude":"-34.88703200","zip_code":null,"city_name":"GLEW","state_id":"BA ","geo_code":null,"job_no":null,"jobtype_id":null,"jobres_id":null,"color":"yellow"},{"eventype_id":"ALRO","tipo_eventos":"Robo","descr":"ROBO PERIMETRAL","alarm_server_date":{"date":"2022-07-04 19:12:47.953000","timezone_type":3,"timezone":"Europe\/Berlin"},"contrato":"30","longitude":"-60.68074100","latitude":"-32.95009100","zip_code":null,"city_name":"ROSARIO","state_id":"SF ","geo_code":null,"job_no":null,"jobtype_id":null,"jobres_id":null,"color":"yellow"},{"eventype_id":"ALRO","tipo_eventos":"Robo","descr":"ROBO ENTRADA\/SALIDA","alarm_server_date":{"date":"2022-07-04 19:09:53.547000","timezone_type":3,"timezone":"Europe\/Berlin"},"contrato":"100","longitude":"-58.58709500","latitude":"-34.64512500","zip_code":null,"city_name":"HAEDO","state_id":"BA ","geo_code":null,"job_no":null,"jobtype_id":null,"jobres_id":null,"color":"yellow"},{"eventype_id":"ALRO","tipo_eventos":"Robo","descr":"ROBO ENTRADA\/SALIDA","alarm_server_date":{"date":"2022-07-04 19:11:59.717000","timezone_type":3,"timezone":"Europe\/Berlin"},"contrato":"12","longitude":"-58.46530200","latitude":"-34.58683200","zip_code":null,"city_name":"VILLA ORTUZAR","state_id":"BA ","geo_code":null,"job_no":200632341,"jobtype_id":"P     ","jobres_id":"1A","color":"yellow"},{"eventype_id":"ALSA","tipo_eventos":"Sabotaje","descr":"SABOTAJE SENSOR","alarm_server_date":{"date":"2022-07-04 19:18:15.083000","timezone_type":3,"timezone":"Europe\/Berlin"},"contrato":"33","longitude":"-58.49402500","latitude":"-34.53383600","zip_code":null,"city_name":"FLORIDA","state_id":"BA ","geo_code":null,"job_no":null,"jobtype_id":null,"jobres_id":null,"color":"yellow"},{"eventype_id":"ALRO","tipo_eventos":"Robo","descr":"ROBO","alarm_server_date":{"date":"2022-07-04 19:15:55.637000","timezone_type":3,"timezone":"Europe\/Berlin"},"contrato":"100","longitude":"-58.70681900","latitude":"-34.61742200","zip_code":null,"city_name":"ITUZAINGO","state_id":"BA ","geo_code":null,"job_no":null,"jobtype_id":null,"jobres_id":null,"color":"yellow"},{"eventype_id":"ALRO","tipo_eventos":"Robo","descr":"ROBO","alarm_server_date":{"date":"2022-07-04 19:10:41.703000","timezone_type":3,"timezone":"Europe\/Berlin"},"contrato":"32","longitude":"-58.46925100","latitude":"-34.55898600","zip_code":null,"city_name":"COGHLAND","state_id":"BA ","geo_code":null,"job_no":null,"jobtype_id":null,"jobres_id":null,"color":"yellow"},{"eventype_id":"ALRO","tipo_eventos":"Robo","descr":"ROBO ENTRADA\/SALIDA","alarm_server_date":{"date":"2022-07-04 19:14:24.397000","timezone_type":3,"timezone":"Europe\/Berlin"},"contrato":"24","longitude":"-58.37312600","latitude":"-34.79280100","zip_code":null,"city_name":"JOSE MARMOL","state_id":"BA ","geo_code":null,"job_no":null,"jobtype_id":null,"jobres_id":null,"color":"yellow"},{"eventype_id":"ALRO","tipo_eventos":"Robo","descr":"ROBO PERIMETRAL","alarm_server_date":{"date":"2022-07-04 19:10:58.300000","timezone_type":3,"timezone":"Europe\/Berlin"},"contrato":"35","longitude":null,"latitude":null,"zip_code":null,"city_name":"MARTINEZ","state_id":"BA ","geo_code":null,"job_no":200632340,"jobtype_id":"P     ","jobres_id":"1A","color":"yellow"},{"eventype_id":"ALRO","tipo_eventos":"Robo","descr":"ROBO","alarm_server_date":{"date":"2022-07-04 19:15:53.277000","timezone_type":3,"timezone":"Europe\/Berlin"},"contrato":"10","longitude":"-58.64120900","latitude":"-34.58964700","zip_code":null,"city_name":"HURLINGHAM","state_id":"BA ","geo_code":null,"job_no":null,"jobtype_id":null,"jobres_id":null,"color":"yellow"},{"eventype_id":"ALRO","tipo_eventos":"Robo","descr":"ROBO","alarm_server_date":{"date":"2022-07-04 19:16:52.480000","timezone_type":3,"timezone":"Europe\/Berlin"},"contrato":"100","longitude":"-58.53177800","latitude":"-34.64184200","zip_code":null,"city_name":"CIUDADELA","state_id":"BA ","geo_code":null,"job_no":null,"jobtype_id":null,"jobres_id":null,"color":"yellow"},{"eventype_id":"ALRO","tipo_eventos":"Robo","descr":"ROBO","alarm_server_date":{"date":"2022-07-04 19:21:49.800000","timezone_type":3,"timezone":"Europe\/Berlin"},"contrato":"100","longitude":"-58.53177800","latitude":"-34.64184200","zip_code":null,"city_name":"CIUDADELA","state_id":"BA ","geo_code":null,"job_no":null,"jobtype_id":null,"jobres_id":null,"color":"yellow"},{"eventype_id":"ALRO","tipo_eventos":"Robo","descr":"ROBO","alarm_server_date":{"date":"2022-07-04 19:08:05.073000","timezone_type":3,"timezone":"Europe\/Berlin"},"contrato":"30","longitude":"-58.22730500","latitude":"-34.80939700","zip_code":null,"city_name":"BOSQUES","state_id":"BA ","geo_code":null,"job_no":null,"jobtype_id":null,"jobres_id":null,"color":"yellow"},{"eventype_id":"ALRO","tipo_eventos":"Robo","descr":"ROBO ENTRADA\/SALIDA","alarm_server_date":{"date":"2022-07-04 19:12:04.797000","timezone_type":3,"timezone":"Europe\/Berlin"},"contrato":"39","longitude":"-58.16845700","latitude":"-34.78618000","zip_code":null,"city_name":"BERAZATEGUI","state_id":"BA ","geo_code":null,"job_no":null,"jobtype_id":null,"jobres_id":null,"color":"yellow"},{"eventype_id":"ALRO","tipo_eventos":"Robo","descr":"ROBO","alarm_server_date":{"date":"2022-07-04 19:13:45.240000","timezone_type":3,"timezone":"Europe\/Berlin"},"contrato":"30","longitude":"-58.57947000","latitude":"-34.65381000","zip_code":null,"city_name":"VILLA LUZURIAGA","state_id":"BA ","geo_code":null,"job_no":null,"jobtype_id":null,"jobres_id":null,"color":"yellow"},{"eventype_id":"ALRO","tipo_eventos":"Robo","descr":"ROBO VIDEO VERIFICACION","alarm_server_date":{"date":"2022-07-04 19:13:49.517000","timezone_type":3,"timezone":"Europe\/Berlin"},"contrato":"100","longitude":"-58.63415100","latitude":"-34.65225200","zip_code":null,"city_name":"CASTELAR","state_id":"BA ","geo_code":null,"job_no":null,"jobtype_id":null,"jobres_id":null,"color":"yellow"},{"eventype_id":"ALRO","tipo_eventos":"Robo","descr":"ROBO ENTRADA\/SALIDA","alarm_server_date":{"date":"2022-07-04 19:14:57.530000","timezone_type":3,"timezone":"Europe\/Berlin"},"contrato":"30","longitude":"-58.45029200","latitude":"-34.57764000","zip_code":null,"city_name":"COLEGIALES","state_id":"BA ","geo_code":null,"job_no":null,"jobtype_id":null,"jobres_id":null,"color":"yellow"},{"eventype_id":"ALRO","tipo_eventos":"Robo","descr":"ROBO","alarm_server_date":{"date":"2022-07-04 19:15:52.377000","timezone_type":3,"timezone":"Europe\/Berlin"},"contrato":"30","longitude":"-68.08426900","latitude":"-38.93110400","zip_code":null,"city_name":"NEUQUEN","state_id":"NQ ","geo_code":null,"job_no":null,"jobtype_id":null,"jobres_id":null,"color":"yellow"},{"eventype_id":"ALRO","tipo_eventos":"Robo","descr":"ROBO PERIMETRAL","alarm_server_date":{"date":"2022-07-04 19:13:42.297000","timezone_type":3,"timezone":"Europe\/Berlin"},"contrato":"30","longitude":"-58.40675200","latitude":"-34.62803000","zip_code":null,"city_name":"SAN CRISTOBAL","state_id":"BA ","geo_code":null,"job_no":null,"jobtype_id":null,"jobres_id":null,"color":"yellow"},{"eventype_id":"ALRO","tipo_eventos":"Robo","descr":"ROBO VIDEO VERIFICACION","alarm_server_date":{"date":"2022-07-04 19:11:55.963000","timezone_type":3,"timezone":"Europe\/Berlin"},"contrato":"39","longitude":"-58.26288900","latitude":"-34.80613500","zip_code":null,"city_name":"FLORENCIO VARELA","state_id":"BA ","geo_code":null,"job_no":null,"jobtype_id":null,"jobres_id":null,"color":"yellow"},{"eventype_id":"ALRO","tipo_eventos":"Robo","descr":"ROBO","alarm_server_date":{"date":"2022-07-04 19:07:23.117000","timezone_type":3,"timezone":"Europe\/Berlin"},"contrato":"17","longitude":"-58.59031200","latitude":"-34.71745600","zip_code":null,"city_name":"ISIDRO CASANOVA","state_id":"BA ","geo_code":null,"job_no":null,"jobtype_id":null,"jobres_id":null,"color":"yellow"},{"eventype_id":"ALRO","tipo_eventos":"Robo","descr":"ROBO","alarm_server_date":{"date":"2022-07-04 19:16:51.120000","timezone_type":3,"timezone":"Europe\/Berlin"},"contrato":"30","longitude":"-58.38788500","latitude":"-34.60513900","zip_code":null,"city_name":"SAN NICOLAS","state_id":"BA ","geo_code":null,"job_no":null,"jobtype_id":null,"jobres_id":null,"color":"yellow"},{"eventype_id":"ALRO","tipo_eventos":"Robo","descr":"ROBO","alarm_server_date":{"date":"2022-07-04 19:13:36.017000","timezone_type":3,"timezone":"Europe\/Berlin"},"contrato":"30","longitude":"-60.72472100","latitude":"-31.63522600","zip_code":null,"city_name":"SANTA FE","state_id":"SF ","geo_code":null,"job_no":null,"jobtype_id":null,"jobres_id":null,"color":"yellow"},{"eventype_id":"ALRO","tipo_eventos":"Robo","descr":"ROBO","alarm_server_date":{"date":"2022-07-04 19:19:33.933000","timezone_type":3,"timezone":"Europe\/Berlin"},"contrato":"30","longitude":"-68.78146600","latitude":"-32.95713500","zip_code":null,"city_name":"GENERAL GUTIERREZ","state_id":"MZ ","geo_code":null,"job_no":null,"jobtype_id":null,"jobres_id":null,"color":"yellow"},{"eventype_id":"ALRO","tipo_eventos":"Robo","descr":"ROBO","alarm_server_date":{"date":"2022-07-04 19:18:30.117000","timezone_type":3,"timezone":"Europe\/Berlin"},"contrato":"13","longitude":"-58.42724000","latitude":"-34.59059100","zip_code":null,"city_name":"PALERMO","state_id":"BA ","geo_code":null,"job_no":200632344,"jobtype_id":"P     ","jobres_id":"1A","color":"yellow"},{"eventype_id":"ALRO","tipo_eventos":"Robo","descr":"ROBO PERIMETRAL","alarm_server_date":{"date":"2022-07-04 19:19:53.760000","timezone_type":3,"timezone":"Europe\/Berlin"},"contrato":"12","longitude":"-58.47368200","latitude":"-34.59664500","zip_code":null,"city_name":"PATERNAL","state_id":"BA ","geo_code":null,"job_no":200632345,"jobtype_id":"P     ","jobres_id":"1A","color":"yellow"},{"eventype_id":"ALRO","tipo_eventos":"Robo","descr":"ROBO","alarm_server_date":{"date":"2022-07-04 19:16:30.137000","timezone_type":3,"timezone":"Europe\/Berlin"},"contrato":"30","longitude":"-58.57461600","latitude":"-34.49761200","zip_code":null,"city_name":"BOULOGNE","state_id":"BA ","geo_code":null,"job_no":null,"jobtype_id":null,"jobres_id":null,"color":"yellow"},{"eventype_id":"ALRO","tipo_eventos":"Robo","descr":"ROBO PERIMETRAL","alarm_server_date":{"date":"2022-07-04 19:14:23.287000","timezone_type":3,"timezone":"Europe\/Berlin"},"contrato":"17","longitude":"-58.62360700","latitude":"-34.64140200","zip_code":null,"city_name":"MORON","state_id":"BA ","geo_code":null,"job_no":null,"jobtype_id":null,"jobres_id":null,"color":"yellow"},{"eventype_id":"ALRO","tipo_eventos":"Robo","descr":"ROBO","alarm_server_date":{"date":"2022-07-04 19:19:03.973000","timezone_type":3,"timezone":"Europe\/Berlin"},"contrato":"33","longitude":"-58.49395800","latitude":"-34.49437800","zip_code":null,"city_name":"MARTINEZ","state_id":"BA ","geo_code":null,"job_no":null,"jobtype_id":null,"jobres_id":null,"color":"yellow"},{"eventype_id":"ALRO","tipo_eventos":"Robo","descr":"ROBO","alarm_server_date":{"date":"2022-07-04 19:14:40.037000","timezone_type":3,"timezone":"Europe\/Berlin"},"contrato":"30","longitude":"-60.64949300","latitude":"-32.93922500","zip_code":null,"city_name":"GRANADERO BAIGORRIA","state_id":"SF ","geo_code":null,"job_no":null,"jobtype_id":null,"jobres_id":null,"color":"yellow"},{"eventype_id":"ALRO","tipo_eventos":"Robo","descr":"ROBO VIDEO VERIFICACION","alarm_server_date":{"date":"2022-07-04 19:21:40.690000","timezone_type":3,"timezone":"Europe\/Berlin"},"contrato":"30","longitude":"-58.49853600","latitude":"-34.56537880","zip_code":null,"city_name":"VILLA URQUIZA","state_id":"BA ","geo_code":null,"job_no":null,"jobtype_id":null,"jobres_id":null,"color":"yellow"},{"eventype_id":"ALRO","tipo_eventos":"Robo","descr":"REMOLQUE MOVIL ACTIVADO","alarm_server_date":{"date":"2022-07-04 19:20:51.480000","timezone_type":3,"timezone":"Europe\/Berlin"},"contrato":"100","longitude":"-58.75018800","latitude":"-34.47007000","zip_code":null,"city_name":"TORTUGUITAS","state_id":"BA ","geo_code":null,"job_no":null,"jobtype_id":null,"jobres_id":null,"color":"yellow"},{"eventype_id":"ALRO","tipo_eventos":"Robo","descr":"ROBO","alarm_server_date":{"date":"2022-07-04 19:13:47.003000","timezone_type":3,"timezone":"Europe\/Berlin"},"contrato":"100","longitude":"-58.51307800","latitude":"-34.67023400","zip_code":null,"city_name":"LA TABLADA","state_id":"BA ","geo_code":null,"job_no":null,"jobtype_id":null,"jobres_id":null,"color":"yellow"},{"eventype_id":"ALRO","tipo_eventos":"Robo","descr":"REMOLQUE MOVIL ACTIVADO","alarm_server_date":{"date":"2022-07-04 19:18:36.593000","timezone_type":3,"timezone":"Europe\/Berlin"},"contrato":"100","longitude":"-58.44586530","latitude":"-34.56345298","zip_code":null,"city_name":"BELGRANO","state_id":"BA ","geo_code":null,"job_no":null,"jobtype_id":null,"jobres_id":null,"color":"yellow"},{"eventype_id":"ALRO","tipo_eventos":"Robo","descr":"ROBO PERIMETRAL","alarm_server_date":{"date":"2022-07-04 19:20:17.600000","timezone_type":3,"timezone":"Europe\/Berlin"},"contrato":"16","longitude":"-58.35513640","latitude":"-34.63167850","zip_code":null,"city_name":"LA BOCA","state_id":"BA ","geo_code":null,"job_no":null,"jobtype_id":null,"jobres_id":null,"color":"yellow"},{"eventype_id":"ALRO","tipo_eventos":"Robo","descr":"ROBO","alarm_server_date":{"date":"2022-07-04 19:14:35.647000","timezone_type":3,"timezone":"Europe\/Berlin"},"contrato":"100","longitude":"-58.55216400","latitude":"-34.64709300","zip_code":"","city_name":"RAMOS MEJIA","state_id":"BA ","geo_code":"","job_no":null,"jobtype_id":null,"jobres_id":null,"color":"yellow"},{"eventype_id":"ALRO","tipo_eventos":"Robo","descr":"ROBO","alarm_server_date":{"date":"2022-07-04 19:20:42.770000","timezone_type":3,"timezone":"Europe\/Berlin"},"contrato":"16","longitude":"-58.38442600","latitude":"-34.61326600","zip_code":"","city_name":"MONSERRAT","state_id":"BA ","geo_code":"","job_no":200632347,"jobtype_id":"P     ","jobres_id":"1A","color":"yellow"},{"eventype_id":"ALRO","tipo_eventos":"Robo","descr":"ROBO","alarm_server_date":{"date":"2022-07-04 19:21:03.507000","timezone_type":3,"timezone":"Europe\/Berlin"},"contrato":"21","longitude":"-58.45799400","latitude":"-34.57492400","zip_code":"","city_name":"COLEGIALES","state_id":"BA ","geo_code":"","job_no":null,"jobtype_id":null,"jobres_id":null,"color":"yellow"},{"eventype_id":"ALRO","tipo_eventos":"Robo","descr":"ROBO","alarm_server_date":{"date":"2022-07-04 19:13:08.990000","timezone_type":3,"timezone":"Europe\/Berlin"},"contrato":"100","longitude":"-58.65210700","latitude":"-34.66507200","zip_code":"1712","city_name":"CASTELAR","state_id":"BA ","geo_code":"17","job_no":null,"jobtype_id":null,"jobres_id":null,"color":"yellow"},{"eventype_id":"ALRO","tipo_eventos":"Robo","descr":"ROBO","alarm_server_date":{"date":"2022-07-04 19:27:55.457000","timezone_type":3,"timezone":"Europe\/Berlin"},"contrato":"100","longitude":"-58.37169000","latitude":"-34.72838000","zip_code":"1824","city_name":"REMEDIOS DE ESCALADA","state_id":"BA ","geo_code":"18","job_no":null,"jobtype_id":null,"jobres_id":null,"color":"yellow"},{"eventype_id":"ALRO","tipo_eventos":"Robo","descr":"ROBO","alarm_server_date":{"date":"2022-07-04 19:09:30.323000","timezone_type":3,"timezone":"Europe\/Berlin"},"contrato":"100","longitude":"-58.44290240","latitude":"-34.81156380","zip_code":"1838","city_name":"LUIS GUILLON","state_id":"BA ","geo_code":"18","job_no":null,"jobtype_id":null,"jobres_id":null,"color":"yellow"},{"eventype_id":"ALRO","tipo_eventos":"Robo","descr":"ROBO PERIMETRAL","alarm_server_date":{"date":"2022-07-04 19:10:09.453000","timezone_type":3,"timezone":"Europe\/Berlin"},"contrato":"31","longitude":"-58.27560300","latitude":"-34.76188300","zip_code":"1882","city_name":"EZPELETA","state_id":"BA ","geo_code":"18","job_no":null,"jobtype_id":null,"jobres_id":null,"color":"yellow"},{"eventype_id":"ALRO","tipo_eventos":"Robo","descr":"ROBO PERIMETRAL","alarm_server_date":{"date":"2022-07-04 19:14:34.287000","timezone_type":3,"timezone":"Europe\/Berlin"},"contrato":"31","longitude":"-58.27560300","latitude":"-34.76188300","zip_code":"1882","city_name":"EZPELETA","state_id":"BA ","geo_code":"18","job_no":null,"jobtype_id":null,"jobres_id":null,"color":"yellow"},{"eventype_id":"ALRO","tipo_eventos":"Robo","descr":"ROBO","alarm_server_date":{"date":"2022-07-04 19:10:21.000000","timezone_type":3,"timezone":"Europe\/Berlin"},"contrato":"30","longitude":"-60.85808000","latitude":"-32.89508000","zip_code":"2132","city_name":"FUNES","state_id":"SF ","geo_code":"21","job_no":null,"jobtype_id":null,"jobres_id":null,"color":"yellow"},{"eventype_id":"ALRO","tipo_eventos":"Robo","descr":"ROBO","alarm_server_date":{"date":"2022-07-04 19:15:18.170000","timezone_type":3,"timezone":"Europe\/Berlin"},"contrato":"30","longitude":"-60.72044097","latitude":"-31.65744980","zip_code":"3000","city_name":"SANTA FE","state_id":"SF ","geo_code":"30","job_no":null,"jobtype_id":null,"jobres_id":null,"color":"yellow"},{"eventype_id":"ALRO","tipo_eventos":"Robo","descr":"ROBO","alarm_server_date":{"date":"2022-07-04 19:17:58.863000","timezone_type":3,"timezone":"Europe\/Berlin"},"contrato":"30","longitude":"-60.53214790","latitude":"-31.57135400","zip_code":"3001","city_name":"COLASTINE NORTE","state_id":"SF ","geo_code":"30","job_no":null,"jobtype_id":null,"jobres_id":null,"color":"yellow"},{"eventype_id":"ALRO","tipo_eventos":"Robo","descr":"ROBO","alarm_server_date":{"date":"2022-07-04 19:19:04.177000","timezone_type":3,"timezone":"Europe\/Berlin"},"contrato":"30","longitude":"-58.96448158","latitude":"-27.45038823","zip_code":"3500","city_name":"RESISTENCIA","state_id":"CC ","geo_code":"35","job_no":null,"jobtype_id":null,"jobres_id":null,"color":"yellow"},{"eventype_id":"ALRO","tipo_eventos":"Robo","descr":"ROBO ENTRADA\/SALIDA","alarm_server_date":{"date":"2022-07-04 20:51:52.773000","timezone_type":3,"timezone":"Europe\/Berlin"},"contrato":"35","longitude":"-58.51288600","latitude":"-34.49374700","zip_code":null,"city_name":"MARTINEZ","state_id":"BA ","geo_code":null,"job_no":null,"jobtype_id":null,"jobres_id":null,"color":"green"},{"eventype_id":"ALRO","tipo_eventos":"Robo","descr":"ROBO ENTRADA\/SALIDA","alarm_server_date":{"date":"2022-07-04 20:11:05.630000","timezone_type":3,"timezone":"Europe\/Berlin"},"contrato":"33","longitude":"-58.50453949","latitude":"-34.53799438","zip_code":null,"city_name":"FLORIDA","state_id":"BA ","geo_code":null,"job_no":null,"jobtype_id":null,"jobres_id":null,"color":"green"},{"eventype_id":"ALRO","tipo_eventos":"Robo","descr":"ROBO ENTRADA\/SALIDA","alarm_server_date":{"date":"2022-07-04 20:15:15.550000","timezone_type":3,"timezone":"Europe\/Berlin"},"contrato":"24","longitude":"-58.34993700","latitude":"-34.68171100","zip_code":null,"city_name":"SARANDI","state_id":"BA ","geo_code":null,"job_no":null,"jobtype_id":null,"jobres_id":null,"color":"green"},{"eventype_id":"ALRO","tipo_eventos":"Robo","descr":"ROBO ENTRADA\/SALIDA","alarm_server_date":{"date":"2022-07-04 19:56:30.530000","timezone_type":3,"timezone":"Europe\/Berlin"},"contrato":"13","longitude":"-58.43957500","latitude":"-34.56619800","zip_code":null,"city_name":"PALERMO","state_id":"BA ","geo_code":null,"job_no":null,"jobtype_id":null,"jobres_id":null,"color":"green"},{"eventype_id":"ALRO","tipo_eventos":"Robo","descr":"ROBO ENTRADA\/SALIDA","alarm_server_date":{"date":"2022-07-04 20:04:38.543000","timezone_type":3,"timezone":"Europe\/Berlin"},"contrato":"16","longitude":"-58.38230700","latitude":"-34.60506100","zip_code":null,"city_name":"SAN NICOLAS","state_id":"BA ","geo_code":null,"job_no":200632359,"jobtype_id":"P     ","jobres_id":"1A","color":"green"},{"eventype_id":"ALRO","tipo_eventos":"Robo","descr":"ROBO PERIMETRAL","alarm_server_date":{"date":"2022-07-04 20:02:14.987000","timezone_type":3,"timezone":"Europe\/Berlin"},"contrato":"100","longitude":"-58.39250700","latitude":"-34.70954800","zip_code":null,"city_name":"LANUS","state_id":"BA ","geo_code":null,"job_no":null,"jobtype_id":null,"jobres_id":null,"color":"green"},{"eventype_id":"ALRO","tipo_eventos":"Robo","descr":"ROBO PERIMETRAL","alarm_server_date":{"date":"2022-07-04 20:53:00.237000","timezone_type":3,"timezone":"Europe\/Berlin"},"contrato":"100","longitude":"-58.39250700","latitude":"-34.70954800","zip_code":null,"city_name":"LANUS","state_id":"BA ","geo_code":null,"job_no":null,"jobtype_id":null,"jobres_id":null,"color":"green"},{"eventype_id":"ALRO","tipo_eventos":"Robo","descr":"ROBO PERIMETRAL","alarm_server_date":{"date":"2022-07-04 20:48:32.413000","timezone_type":3,"timezone":"Europe\/Berlin"},"contrato":"100","longitude":"-58.41753900","latitude":"-34.73485200","zip_code":null,"city_name":"BANFIELD","state_id":"BA ","geo_code":null,"job_no":null,"jobtype_id":null,"jobres_id":null,"color":"green"},{"eventype_id":"ALRO","tipo_eventos":"Robo","descr":"ROBO ENTRADA\/SALIDA","alarm_server_date":{"date":"2022-07-04 19:59:58.180000","timezone_type":3,"timezone":"Europe\/Berlin"},"contrato":"4","longitude":"-58.53193600","latitude":"-34.58257400","zip_code":null,"city_name":"SAN MARTIN","state_id":"BA ","geo_code":null,"job_no":null,"jobtype_id":null,"jobres_id":null,"color":"green"},{"eventype_id":"ALRO","tipo_eventos":"Robo","descr":"ROBO ENTRADA\/SALIDA","alarm_server_date":{"date":"2022-07-04 20:03:56.720000","timezone_type":3,"timezone":"Europe\/Berlin"},"contrato":"4","longitude":"-58.53193600","latitude":"-34.58257400","zip_code":null,"city_name":"SAN MARTIN","state_id":"BA ","geo_code":null,"job_no":null,"jobtype_id":null,"jobres_id":null,"color":"green"},{"eventype_id":"ALRO","tipo_eventos":"Robo","descr":"ROBO ENTRADA\/SALIDA","alarm_server_date":{"date":"2022-07-04 20:18:49.223000","timezone_type":3,"timezone":"Europe\/Berlin"},"contrato":"4","longitude":"-58.53193600","latitude":"-34.58257400","zip_code":null,"city_name":"SAN MARTIN","state_id":"BA ","geo_code":null,"job_no":null,"jobtype_id":null,"jobres_id":null,"color":"green"},{"eventype_id":"ALRO","tipo_eventos":"Robo","descr":"ROBO INTERIOR","alarm_server_date":{"date":"2022-07-04 20:24:58.060000","timezone_type":3,"timezone":"Europe\/Berlin"},"contrato":"32","longitude":"-58.45041700","latitude":"-34.56631900","zip_code":null,"city_name":"BELGRANO","state_id":"BA ","geo_code":null,"job_no":null,"jobtype_id":null,"jobres_id":null,"color":"green"},{"eventype_id":"ALRO","tipo_eventos":"Robo","descr":"ROBO ENTRADA\/SALIDA","alarm_server_date":{"date":"2022-07-04 19:59:19.773000","timezone_type":3,"timezone":"Europe\/Berlin"},"contrato":"33","longitude":"-58.55656800","latitude":"-34.44123800","zip_code":null,"city_name":"SAN FERNANDO","state_id":"BA ","geo_code":null,"job_no":null,"jobtype_id":null,"jobres_id":null,"color":"green"},{"eventype_id":"ALRO","tipo_eventos":"Robo","descr":"ROBO PERIMETRAL","alarm_server_date":{"date":"2022-07-04 20:34:18.640000","timezone_type":3,"timezone":"Europe\/Berlin"},"contrato":"33","longitude":null,"latitude":null,"zip_code":null,"city_name":"CHILAVERT","state_id":"BA ","geo_code":null,"job_no":null,"jobtype_id":null,"jobres_id":null,"color":"green"},{"eventype_id":"ALRO","tipo_eventos":"Robo","descr":"ROBO PERIMETRAL","alarm_server_date":{"date":"2022-07-04 20:17:46.010000","timezone_type":3,"timezone":"Europe\/Berlin"},"contrato":"13","longitude":"-58.42334000","latitude":"-34.57766300","zip_code":null,"city_name":"PALERMO","state_id":"BA ","geo_code":null,"job_no":null,"jobtype_id":null,"jobres_id":null,"color":"green"},{"eventype_id":"ALRO","tipo_eventos":"Robo","descr":"ROBO ENTRADA\/SALIDA","alarm_server_date":{"date":"2022-07-04 20:04:16.660000","timezone_type":3,"timezone":"Europe\/Berlin"},"contrato":"26","longitude":"-58.45073100","latitude":"-34.60532500","zip_code":null,"city_name":"VILLA CRESPO","state_id":"BA ","geo_code":null,"job_no":null,"jobtype_id":null,"jobres_id":null,"color":"green"},{"eventype_id":"ALSA","tipo_eventos":"Sabotaje","descr":"SABOTAJE SENSOR","alarm_server_date":{"date":"2022-07-04 19:55:19.100000","timezone_type":3,"timezone":"Europe\/Berlin"},"contrato":"30","longitude":"-58.88105600","latitude":"-34.47446300","zip_code":null,"city_name":"PILAR","state_id":"BA ","geo_code":null,"job_no":null,"jobtype_id":null,"jobres_id":null,"color":"green"},{"eventype_id":"ALRO","tipo_eventos":"Robo","descr":"REMOLQUE MOVIL ACTIVADO","alarm_server_date":{"date":"2022-07-04 19:58:34.440000","timezone_type":3,"timezone":"Europe\/Berlin"},"contrato":"100","longitude":"-58.46961900","latitude":"-34.63433100","zip_code":null,"city_name":"FLORESTA","state_id":"BA ","geo_code":null,"job_no":null,"jobtype_id":null,"jobres_id":null,"color":"green"},{"eventype_id":"ALRO","tipo_eventos":"Robo","descr":"REMOLQUE MOVIL ACTIVADO","alarm_server_date":{"date":"2022-07-04 20:10:57.070000","timezone_type":3,"timezone":"Europe\/Berlin"},"contrato":"100","longitude":"-58.46961900","latitude":"-34.63433100","zip_code":null,"city_name":"FLORESTA","state_id":"BA ","geo_code":null,"job_no":null,"jobtype_id":null,"jobres_id":null,"color":"green"},{"eventype_id":"ALRO","tipo_eventos":"Robo","descr":"ROBO","alarm_server_date":{"date":"2022-07-04 20:02:21.940000","timezone_type":3,"timezone":"Europe\/Berlin"},"contrato":"30","longitude":"-58.77490700","latitude":"-27.49298800","zip_code":null,"city_name":"CORRIENTES","state_id":"CR ","geo_code":null,"job_no":null,"jobtype_id":null,"jobres_id":null,"color":"green"},{"eventype_id":"ALRO","tipo_eventos":"Robo","descr":"ROBO ENTRADA\/SALIDA","alarm_server_date":{"date":"2022-07-04 20:43:15.037000","timezone_type":3,"timezone":"Europe\/Berlin"},"contrato":"30","longitude":"-58.69373500","latitude":"-34.61717400","zip_code":null,"city_name":"ITUZAINGO","state_id":"BA ","geo_code":null,"job_no":null,"jobtype_id":null,"jobres_id":null,"color":"green"},{"eventype_id":"ALSA","tipo_eventos":"Sabotaje","descr":"SABOTAJE SENSOR","alarm_server_date":{"date":"2022-07-04 19:55:12.633000","timezone_type":3,"timezone":"Europe\/Berlin"},"contrato":"30","longitude":"-68.80799300","latitude":"-32.92369200","zip_code":null,"city_name":"GODOY CRUZ","state_id":"MZ ","geo_code":null,"job_no":null,"jobtype_id":null,"jobres_id":null,"color":"green"},{"eventype_id":"ALRO","tipo_eventos":"Robo","descr":"ROBO","alarm_server_date":{"date":"2022-07-04 20:13:22.930000","timezone_type":3,"timezone":"Europe\/Berlin"},"contrato":"30","longitude":"-68.80799300","latitude":"-32.92369200","zip_code":null,"city_name":"GODOY CRUZ","state_id":"MZ ","geo_code":null,"job_no":null,"jobtype_id":null,"jobres_id":null,"color":"green"},{"eventype_id":"ALRO","tipo_eventos":"Robo","descr":"ROBO","alarm_server_date":{"date":"2022-07-04 20:18:54.880000","timezone_type":3,"timezone":"Europe\/Berlin"},"contrato":"100","longitude":"-58.41763600","latitude":"-34.73140500","zip_code":null,"city_name":"LOMAS DE ZAMORA","state_id":"BA ","geo_code":null,"job_no":null,"jobtype_id":null,"jobres_id":null,"color":"green"},{"eventype_id":"ALRO","tipo_eventos":"Robo","descr":"ROBO","alarm_server_date":{"date":"2022-07-04 20:27:43.840000","timezone_type":3,"timezone":"Europe\/Berlin"},"contrato":"30","longitude":"-58.64845000","latitude":"-34.64848600","zip_code":null,"city_name":"CASTELAR","state_id":"BA ","geo_code":null,"job_no":null,"jobtype_id":null,"jobres_id":null,"color":"green"},{"eventype_id":"ALRO","tipo_eventos":"Robo","descr":"ROBO","alarm_server_date":{"date":"2022-07-04 19:46:28.523000","timezone_type":3,"timezone":"Europe\/Berlin"},"contrato":"30","longitude":"-58.82631900","latitude":"-34.38263000","zip_code":null,"city_name":"MATHEU","state_id":"BA ","geo_code":null,"job_no":null,"jobtype_id":null,"jobres_id":null,"color":"yellow"},{"eventype_id":"ALRO","tipo_eventos":"Robo","descr":"ROBO PERIMETRAL","alarm_server_date":{"date":"2022-07-04 19:46:49.643000","timezone_type":3,"timezone":"Europe\/Berlin"},"contrato":"26","longitude":"-58.51911700","latitude":"-34.65251200","zip_code":null,"city_name":"LINIERS","state_id":"BA ","geo_code":null,"job_no":null,"jobtype_id":null,"jobres_id":null,"color":"yellow"},{"eventype_id":"ALPA","tipo_eventos":"P\u00e1nico","descr":"ATRACO","alarm_server_date":{"date":"2022-07-04 19:40:55.323000","timezone_type":3,"timezone":"Europe\/Berlin"},"contrato":"32","longitude":"-58.44842400","latitude":"-34.56140700","zip_code":null,"city_name":"BELGRANO","state_id":"BA ","geo_code":null,"job_no":200632353,"jobtype_id":"P     ","jobres_id":"1A","color":"yellow"},{"eventype_id":"ALRO","tipo_eventos":"Robo","descr":"ROBO ENTRADA\/SALIDA","alarm_server_date":{"date":"2022-07-04 20:27:29.050000","timezone_type":3,"timezone":"Europe\/Berlin"},"contrato":"17","longitude":"-58.62235000","latitude":"-34.65655400","zip_code":null,"city_name":"MORON","state_id":"BA ","geo_code":null,"job_no":null,"jobtype_id":null,"jobres_id":null,"color":"green"},{"eventype_id":"ALRO","tipo_eventos":"Robo","descr":"ROBO PERIMETRAL","alarm_server_date":{"date":"2022-07-04 19:23:27.980000","timezone_type":3,"timezone":"Europe\/Berlin"},"contrato":"31","longitude":"-58.26728200","latitude":"-34.75883800","zip_code":null,"city_name":"QUILMES","state_id":"BA ","geo_code":null,"job_no":null,"jobtype_id":null,"jobres_id":null,"color":"yellow"},{"eventype_id":"ALRO","tipo_eventos":"Robo","descr":"ROBO ENTRADA\/SALIDA","alarm_server_date":{"date":"2022-07-04 20:24:10.603000","timezone_type":3,"timezone":"Europe\/Berlin"},"contrato":"100","longitude":null,"latitude":null,"zip_code":null,"city_name":"EXALTACION DE LA CRUZ","state_id":"BA ","geo_code":null,"job_no":null,"jobtype_id":null,"jobres_id":null,"color":"green"},{"eventype_id":"ALPA","tipo_eventos":"P\u00e1nico","descr":"ATRACO","alarm_server_date":{"date":"2022-07-04 20:39:22.073000","timezone_type":3,"timezone":"Europe\/Berlin"},"contrato":"13","longitude":null,"latitude":null,"zip_code":null,"city_name":"PALERMO","state_id":"BA ","geo_code":null,"job_no":200632376,"jobtype_id":"P     ","jobres_id":null,"color":"green"},{"eventype_id":"ALRO","tipo_eventos":"Robo","descr":"ROBO PERIMETRAL","alarm_server_date":{"date":"2022-07-04 19:39:45.060000","timezone_type":3,"timezone":"Europe\/Berlin"},"contrato":"33","longitude":"-58.51858900","latitude":"-34.52059900","zip_code":null,"city_name":"MUNRO","state_id":"BA ","geo_code":null,"job_no":null,"jobtype_id":null,"jobres_id":null,"color":"yellow"},{"eventype_id":"ALRO","tipo_eventos":"Robo","descr":"ROBO PERIMETRAL","alarm_server_date":{"date":"2022-07-04 20:13:50.610000","timezone_type":3,"timezone":"Europe\/Berlin"},"contrato":"25","longitude":"-58.72482400","latitude":"-34.41546000","zip_code":null,"city_name":"GARIN","state_id":"BA ","geo_code":null,"job_no":200632362,"jobtype_id":"P     ","jobres_id":"1A","color":"green"},{"eventype_id":"ALRO","tipo_eventos":"Robo","descr":"ROBO","alarm_server_date":{"date":"2022-07-04 20:32:14.447000","timezone_type":3,"timezone":"Europe\/Berlin"},"contrato":"10","longitude":"-58.63980000","latitude":"-34.62853000","zip_code":null,"city_name":"VILLA TESEI","state_id":"BA ","geo_code":null,"job_no":null,"jobtype_id":null,"jobres_id":null,"color":"green"},{"eventype_id":"ALSA","tipo_eventos":"Sabotaje","descr":"SABOTAJE SENSOR","alarm_server_date":{"date":"2022-07-04 20:32:14.607000","timezone_type":3,"timezone":"Europe\/Berlin"},"contrato":"10","longitude":"-58.63980000","latitude":"-34.62853000","zip_code":null,"city_name":"VILLA TESEI","state_id":"BA ","geo_code":null,"job_no":200632373,"jobtype_id":"P     ","jobres_id":null,"color":"green"},{"eventype_id":"ALRO","tipo_eventos":"Robo","descr":"ROBO PERIMETRAL","alarm_server_date":{"date":"2022-07-04 19:54:17.343000","timezone_type":3,"timezone":"Europe\/Berlin"},"contrato":"15","longitude":"-58.52948200","latitude":"-34.59235200","zip_code":null,"city_name":"VILLA LYNCH","state_id":"BA ","geo_code":null,"job_no":null,"jobtype_id":null,"jobres_id":null,"color":"green"},{"eventype_id":"ALRO","tipo_eventos":"Robo","descr":"ROBO PERIMETRAL","alarm_server_date":{"date":"2022-07-04 19:55:54.387000","timezone_type":3,"timezone":"Europe\/Berlin"},"contrato":"15","longitude":"-58.52948200","latitude":"-34.59235200","zip_code":null,"city_name":"VILLA LYNCH","state_id":"BA ","geo_code":null,"job_no":null,"jobtype_id":null,"jobres_id":null,"color":"green"},{"eventype_id":"ALRO","tipo_eventos":"Robo","descr":"ROBO PERIMETRAL","alarm_server_date":{"date":"2022-07-04 19:45:06.077000","timezone_type":3,"timezone":"Europe\/Berlin"},"contrato":"15","longitude":"-58.52948200","latitude":"-34.59235200","zip_code":null,"city_name":"VILLA LYNCH","state_id":"BA ","geo_code":null,"job_no":null,"jobtype_id":null,"jobres_id":null,"color":"yellow"},{"eventype_id":"ALRO","tipo_eventos":"Robo","descr":"ROBO PERIMETRAL","alarm_server_date":{"date":"2022-07-04 19:51:03.373000","timezone_type":3,"timezone":"Europe\/Berlin"},"contrato":"15","longitude":"-58.52948200","latitude":"-34.59235200","zip_code":null,"city_name":"VILLA LYNCH","state_id":"BA ","geo_code":null,"job_no":null,"jobtype_id":null,"jobres_id":null,"color":"yellow"},{"eventype_id":"ALRO","tipo_eventos":"Robo","descr":"ROBO PERIMETRAL","alarm_server_date":{"date":"2022-07-04 19:51:04.217000","timezone_type":3,"timezone":"Europe\/Berlin"},"contrato":"26","longitude":"-58.45064700","latitude":"-34.59936400","zip_code":null,"city_name":"VILLA CRESPO","state_id":"BA ","geo_code":null,"job_no":null,"jobtype_id":null,"jobres_id":null,"color":"yellow"},{"eventype_id":"ALRO","tipo_eventos":"Robo","descr":"ROBO PERIMETRAL","alarm_server_date":{"date":"2022-07-04 20:45:08.350000","timezone_type":3,"timezone":"Europe\/Berlin"},"contrato":"24","longitude":"-58.40786500","latitude":"-34.80090200","zip_code":null,"city_name":"ADROGUE","state_id":"BA ","geo_code":null,"job_no":null,"jobtype_id":null,"jobres_id":null,"color":"green"},{"eventype_id":"ALRO","tipo_eventos":"Robo","descr":"ROBO PERIMETRAL","alarm_server_date":{"date":"2022-07-04 19:26:00.020000","timezone_type":3,"timezone":"Europe\/Berlin"},"contrato":"11","longitude":"-58.48396000","latitude":"-34.49656500","zip_code":null,"city_name":"LA LUCILA","state_id":"BA ","geo_code":null,"job_no":null,"jobtype_id":null,"jobres_id":null,"color":"yellow"},{"eventype_id":"ALRO","tipo_eventos":"Robo","descr":"ROBO ENTRADA\/SALIDA","alarm_server_date":{"date":"2022-07-04 19:43:03.407000","timezone_type":3,"timezone":"Europe\/Berlin"},"contrato":"100","longitude":"-58.56252700","latitude":"-34.64415400","zip_code":null,"city_name":"RAMOS MEJIA","state_id":"BA ","geo_code":null,"job_no":null,"jobtype_id":null,"jobres_id":null,"color":"yellow"},{"eventype_id":"ALRO","tipo_eventos":"Robo","descr":"ROBO","alarm_server_date":{"date":"2022-07-04 19:46:45.377000","timezone_type":3,"timezone":"Europe\/Berlin"},"contrato":"29","longitude":"-58.56500600","latitude":"-34.48647600","zip_code":null,"city_name":"BOULOGNE","state_id":"BA ","geo_code":null,"job_no":null,"jobtype_id":null,"jobres_id":null,"color":"yellow"},{"eventype_id":"ALRO","tipo_eventos":"Robo","descr":"ROBO","alarm_server_date":{"date":"2022-07-04 19:46:35.537000","timezone_type":3,"timezone":"Europe\/Berlin"},"contrato":"31","longitude":"-58.26529700","latitude":"-34.71598400","zip_code":null,"city_name":"QUILMES","state_id":"BA ","geo_code":null,"job_no":null,"jobtype_id":null,"jobres_id":null,"color":"yellow"},{"eventype_id":"ALPA","tipo_eventos":"P\u00e1nico","descr":"ATRACO","alarm_server_date":{"date":"2022-07-04 19:31:43.980000","timezone_type":3,"timezone":"Europe\/Berlin"},"contrato":"100","longitude":"-58.38564600","latitude":"-34.73216100","zip_code":null,"city_name":"REMEDIOS DE ESCALADA","state_id":"BA ","geo_code":null,"job_no":null,"jobtype_id":null,"jobres_id":null,"color":"yellow"},{"eventype_id":"ALRO","tipo_eventos":"Robo","descr":"ROBO","alarm_server_date":{"date":"2022-07-04 20:32:36.953000","timezone_type":3,"timezone":"Europe\/Berlin"},"contrato":"19","longitude":"-58.12242100","latitude":"-34.99164800","zip_code":null,"city_name":"ABASTO","state_id":"BA ","geo_code":null,"job_no":null,"jobtype_id":null,"jobres_id":null,"color":"green"},{"eventype_id":"ALRO","tipo_eventos":"Robo","descr":"ROBO ENTRADA\/SALIDA","alarm_server_date":{"date":"2022-07-04 20:36:08.260000","timezone_type":3,"timezone":"Europe\/Berlin"},"contrato":"100","longitude":"-58.52691800","latitude":"-34.63176900","zip_code":null,"city_name":"VERSAILLES","state_id":"BA ","geo_code":null,"job_no":null,"jobtype_id":null,"jobres_id":null,"color":"green"},{"eventype_id":"ALSA","tipo_eventos":"Sabotaje","descr":"SABOTAJE SENSOR","alarm_server_date":{"date":"2022-07-04 19:45:52.437000","timezone_type":3,"timezone":"Europe\/Berlin"},"contrato":"33","longitude":"-58.50866800","latitude":"-34.49544200","zip_code":null,"city_name":"MARTINEZ","state_id":"BA ","geo_code":null,"job_no":null,"jobtype_id":null,"jobres_id":null,"color":"yellow"},{"eventype_id":"ALPA","tipo_eventos":"P\u00e1nico","descr":"ATRACO","alarm_server_date":{"date":"2022-07-04 20:23:51.417000","timezone_type":3,"timezone":"Europe\/Berlin"},"contrato":"26","longitude":"-58.41764500","latitude":"-34.60465400","zip_code":null,"city_name":"ALMAGRO","state_id":"BA ","geo_code":null,"job_no":null,"jobtype_id":null,"jobres_id":null,"color":"green"},{"eventype_id":"ALRO","tipo_eventos":"Robo","descr":"ROBO","alarm_server_date":{"date":"2022-07-04 20:40:10.233000","timezone_type":3,"timezone":"Europe\/Berlin"},"contrato":"32","longitude":"-58.46925100","latitude":"-34.55898600","zip_code":null,"city_name":"COGHLAND","state_id":"BA ","geo_code":null,"job_no":null,"jobtype_id":null,"jobres_id":null,"color":"green"},{"eventype_id":"ALRO","tipo_eventos":"Robo","descr":"ROBO","alarm_server_date":{"date":"2022-07-04 20:38:12.787000","timezone_type":3,"timezone":"Europe\/Berlin"},"contrato":"13","longitude":"-58.37739000","latitude":"-34.62673700","zip_code":null,"city_name":"CONSTITUCION","state_id":"BA ","geo_code":null,"job_no":null,"jobtype_id":null,"jobres_id":null,"color":"green"},{"eventype_id":"ALRO","tipo_eventos":"Robo","descr":"ROBO PERIMETRAL","alarm_server_date":{"date":"2022-07-04 19:29:22.463000","timezone_type":3,"timezone":"Europe\/Berlin"},"contrato":"30","longitude":"-60.67959500","latitude":"-33.01950400","zip_code":null,"city_name":"ROSARIO","state_id":"BA ","geo_code":null,"job_no":null,"jobtype_id":null,"jobres_id":null,"color":"yellow"},{"eventype_id":"ALRO","tipo_eventos":"Robo","descr":"ROBO","alarm_server_date":{"date":"2022-07-04 19:42:33.390000","timezone_type":3,"timezone":"Europe\/Berlin"},"contrato":"11","longitude":"-58.48445400","latitude":"-34.49828100","zip_code":null,"city_name":"LA LUCILA","state_id":"BA ","geo_code":null,"job_no":null,"jobtype_id":null,"jobres_id":null,"color":"yellow"},{"eventype_id":"ALRO","tipo_eventos":"Robo","descr":"ROBO","alarm_server_date":{"date":"2022-07-04 19:40:13.020000","timezone_type":3,"timezone":"Europe\/Berlin"},"contrato":"4","longitude":"-58.54138300","latitude":"-34.51674400","zip_code":null,"city_name":"VILLA ADELINA","state_id":"BA ","geo_code":null,"job_no":null,"jobtype_id":null,"jobres_id":null,"color":"yellow"},{"eventype_id":"ALRO","tipo_eventos":"Robo","descr":"ROBO","alarm_server_date":{"date":"2022-07-04 19:21:52.220000","timezone_type":3,"timezone":"Europe\/Berlin"},"contrato":"100","longitude":"-58.65771700","latitude":"-34.64719400","zip_code":null,"city_name":"CASTELAR","state_id":"BA ","geo_code":null,"job_no":200632346,"jobtype_id":"P     ","jobres_id":"1A","color":"yellow"},{"eventype_id":"ALSA","tipo_eventos":"Sabotaje","descr":"SABOTAJE PA","alarm_server_date":{"date":"2022-07-04 19:45:46.660000","timezone_type":3,"timezone":"Europe\/Berlin"},"contrato":"13","longitude":"-58.42905000","latitude":"-34.59064200","zip_code":null,"city_name":"PALERMO","state_id":"BA ","geo_code":null,"job_no":200632355,"jobtype_id":"P     ","jobres_id":"1A","color":"yellow"},{"eventype_id":"ALSA","tipo_eventos":"Sabotaje","descr":"SABOTAJE PA","alarm_server_date":{"date":"2022-07-04 19:49:23.173000","timezone_type":3,"timezone":"Europe\/Berlin"},"contrato":"13","longitude":"-58.42905000","latitude":"-34.59064200","zip_code":null,"city_name":"PALERMO","state_id":"BA ","geo_code":null,"job_no":null,"jobtype_id":null,"jobres_id":null,"color":"yellow"},{"eventype_id":"ALRO","tipo_eventos":"Robo","descr":"ROBO INTERIOR","alarm_server_date":{"date":"2022-07-04 19:31:28.173000","timezone_type":3,"timezone":"Europe\/Berlin"},"contrato":"30","longitude":"-68.08527700","latitude":"-38.92029500","zip_code":null,"city_name":"NEUQUEN","state_id":"NQ ","geo_code":null,"job_no":null,"jobtype_id":null,"jobres_id":null,"color":"yellow"},{"eventype_id":"ALRO","tipo_eventos":"Robo","descr":"ROBO PERIMETRAL","alarm_server_date":{"date":"2022-07-04 19:27:00.197000","timezone_type":3,"timezone":"Europe\/Berlin"},"contrato":"35","longitude":null,"latitude":null,"zip_code":null,"city_name":"ACASSUSO","state_id":"BA ","geo_code":null,"job_no":null,"jobtype_id":null,"jobres_id":null,"color":"yellow"},{"eventype_id":"ALRO","tipo_eventos":"Robo","descr":"ROBO PERIMETRAL","alarm_server_date":{"date":"2022-07-04 19:40:55.543000","timezone_type":3,"timezone":"Europe\/Berlin"},"contrato":"25","longitude":"-58.77018100","latitude":"-34.36226800","zip_code":null,"city_name":"ING.MASCHWITZ","state_id":"BA ","geo_code":null,"job_no":null,"jobtype_id":null,"jobres_id":null,"color":"yellow"},{"eventype_id":"ALRO","tipo_eventos":"Robo","descr":"ROBO","alarm_server_date":{"date":"2022-07-04 19:35:03.567000","timezone_type":3,"timezone":"Europe\/Berlin"},"contrato":"33","longitude":"-58.51981300","latitude":"-34.53251200","zip_code":null,"city_name":"MUNRO","state_id":"BA ","geo_code":null,"job_no":null,"jobtype_id":null,"jobres_id":null,"color":"yellow"},{"eventype_id":"ALRO","tipo_eventos":"Robo","descr":"ROBO ENTRADA\/SALIDA","alarm_server_date":{"date":"2022-07-04 19:42:29.317000","timezone_type":3,"timezone":"Europe\/Berlin"},"contrato":"30","longitude":"-58.99870400","latitude":"-27.44635900","zip_code":null,"city_name":"RESISTENCIA","state_id":"CH ","geo_code":null,"job_no":null,"jobtype_id":null,"jobres_id":null,"color":"yellow"},{"eventype_id":"ALRO","tipo_eventos":"Robo","descr":"ROBO ENTRADA\/SALIDA","alarm_server_date":{"date":"2022-07-04 19:29:33.560000","timezone_type":3,"timezone":"Europe\/Berlin"},"contrato":"32","longitude":"-58.48317800","latitude":"-34.56911100","zip_code":null,"city_name":"VILLA URQUIZA","state_id":"BA ","geo_code":null,"job_no":null,"jobtype_id":null,"jobres_id":null,"color":"yellow"},{"eventype_id":"ALRO","tipo_eventos":"Robo","descr":"ROBO ENTRADA\/SALIDA","alarm_server_date":{"date":"2022-07-04 19:41:41.977000","timezone_type":3,"timezone":"Europe\/Berlin"},"contrato":"17","longitude":"-58.64292300","latitude":"-34.72959400","zip_code":null,"city_name":"RAFAEL CASTILLO","state_id":"BA ","geo_code":null,"job_no":null,"jobtype_id":null,"jobres_id":null,"color":"yellow"},{"eventype_id":"ALRO","tipo_eventos":"Robo","descr":"ROBO ENTRADA\/SALIDA","alarm_server_date":{"date":"2022-07-04 19:32:51.433000","timezone_type":3,"timezone":"Europe\/Berlin"},"contrato":"30","longitude":"-58.26159300","latitude":"-34.74214100","zip_code":null,"city_name":"QUILMES OESTE","state_id":"BA ","geo_code":null,"job_no":null,"jobtype_id":null,"jobres_id":null,"color":"yellow"},{"eventype_id":"ALRO","tipo_eventos":"Robo","descr":"ROBO","alarm_server_date":{"date":"2022-07-04 19:24:49.040000","timezone_type":3,"timezone":"Europe\/Berlin"},"contrato":"30","longitude":"-58.55446200","latitude":"-34.44264600","zip_code":null,"city_name":"SAN FERNANDO","state_id":"BA ","geo_code":null,"job_no":null,"jobtype_id":null,"jobres_id":null,"color":"yellow"},{"eventype_id":"ALRO","tipo_eventos":"Robo","descr":"ROBO PERIMETRAL","alarm_server_date":{"date":"2022-07-04 19:27:10.427000","timezone_type":3,"timezone":"Europe\/Berlin"},"contrato":"26","longitude":"-58.48863400","latitude":"-34.61989100","zip_code":null,"city_name":"VILLA SANTA RITA","state_id":"BA ","geo_code":null,"job_no":null,"jobtype_id":null,"jobres_id":null,"color":"yellow"},{"eventype_id":"ALRO","tipo_eventos":"Robo","descr":"ROBO ENTRADA\/SALIDA","alarm_server_date":{"date":"2022-07-04 19:22:36.707000","timezone_type":3,"timezone":"Europe\/Berlin"},"contrato":"100","longitude":"-58.52903200","latitude":"-34.71425000","zip_code":null,"city_name":"CIUDAD EVITA","state_id":"BA ","geo_code":null,"job_no":null,"jobtype_id":null,"jobres_id":null,"color":"yellow"},{"eventype_id":"ALPA","tipo_eventos":"P\u00e1nico","descr":"ATRACO","alarm_server_date":{"date":"2022-07-04 19:22:38.627000","timezone_type":3,"timezone":"Europe\/Berlin"},"contrato":"13","longitude":"-58.41479300","latitude":"-34.58375700","zip_code":null,"city_name":"PALERMO","state_id":"BA ","geo_code":null,"job_no":null,"jobtype_id":null,"jobres_id":null,"color":"yellow"},{"eventype_id":"ALRO","tipo_eventos":"Robo","descr":"ROBO PERIMETRAL","alarm_server_date":{"date":"2022-07-04 19:30:28.677000","timezone_type":3,"timezone":"Europe\/Berlin"},"contrato":"3","longitude":"-58.49786300","latitude":"-34.63634700","zip_code":null,"city_name":"VILLA LURO","state_id":"BA ","geo_code":null,"job_no":null,"jobtype_id":null,"jobres_id":null,"color":"yellow"},{"eventype_id":"ALRO","tipo_eventos":"Robo","descr":"ROBO","alarm_server_date":{"date":"2022-07-04 19:36:27.007000","timezone_type":3,"timezone":"Europe\/Berlin"},"contrato":"12","longitude":"-58.39900100","latitude":"-34.60324300","zip_code":null,"city_name":"BALVANERA","state_id":"BA ","geo_code":null,"job_no":null,"jobtype_id":null,"jobres_id":null,"color":"yellow"},{"eventype_id":"ALRO","tipo_eventos":"Robo","descr":"ROBO PERIMETRAL","alarm_server_date":{"date":"2022-07-04 19:35:35.753000","timezone_type":3,"timezone":"Europe\/Berlin"},"contrato":"25","longitude":"-58.52832500","latitude":"-34.49360700","zip_code":null,"city_name":"MARTINEZ","state_id":"BA ","geo_code":null,"job_no":null,"jobtype_id":null,"jobres_id":null,"color":"yellow"},{"eventype_id":"ALRO","tipo_eventos":"Robo","descr":"ROBO","alarm_server_date":{"date":"2022-07-04 19:49:33.240000","timezone_type":3,"timezone":"Europe\/Berlin"},"contrato":"30","longitude":"-58.39320400","latitude":"-34.59972800","zip_code":null,"city_name":"RECOLETA","state_id":"BA ","geo_code":null,"job_no":null,"jobtype_id":null,"jobres_id":null,"color":"yellow"},{"eventype_id":"ALRO","tipo_eventos":"Robo","descr":"ROBO","alarm_server_date":{"date":"2022-07-04 19:30:54.003000","timezone_type":3,"timezone":"Europe\/Berlin"},"contrato":"30","longitude":"-58.85422900","latitude":"-34.63417300","zip_code":null,"city_name":"FRANCISCO ALVAREZ","state_id":"BA ","geo_code":null,"job_no":null,"jobtype_id":null,"jobres_id":null,"color":"yellow"},{"eventype_id":"ALSA","tipo_eventos":"Sabotaje","descr":"SABOTAJE SENSOR","alarm_server_date":{"date":"2022-07-04 19:45:54.607000","timezone_type":3,"timezone":"Europe\/Berlin"},"contrato":"30","longitude":"-57.90148000","latitude":"-34.96363300","zip_code":null,"city_name":"LA PLATA","state_id":"BA ","geo_code":null,"job_no":null,"jobtype_id":null,"jobres_id":null,"color":"yellow"},{"eventype_id":"ALRO","tipo_eventos":"Robo","descr":"ROBO PERIMETRAL","alarm_server_date":{"date":"2022-07-04 19:28:56.383000","timezone_type":3,"timezone":"Europe\/Berlin"},"contrato":"30","longitude":"-58.30186100","latitude":"-34.72598500","zip_code":null,"city_name":"QUILMES","state_id":"BA ","geo_code":null,"job_no":null,"jobtype_id":null,"jobres_id":null,"color":"yellow"},{"eventype_id":"ALRO","tipo_eventos":"Robo","descr":"ROBO PERIMETRAL","alarm_server_date":{"date":"2022-07-04 19:32:00.320000","timezone_type":3,"timezone":"Europe\/Berlin"},"contrato":"30","longitude":"-58.30186100","latitude":"-34.72598500","zip_code":null,"city_name":"QUILMES","state_id":"BA ","geo_code":null,"job_no":null,"jobtype_id":null,"jobres_id":null,"color":"yellow"},{"eventype_id":"ALRO","tipo_eventos":"Robo","descr":"ROBO PERIMETRAL","alarm_server_date":{"date":"2022-07-04 19:36:38.197000","timezone_type":3,"timezone":"Europe\/Berlin"},"contrato":"15","longitude":"-58.48140200","latitude":"-34.68040300","zip_code":null,"city_name":"VILLA LUGANO","state_id":"BA ","geo_code":null,"job_no":200632351,"jobtype_id":"P     ","jobres_id":"1A","color":"yellow"},{"eventype_id":"ALRO","tipo_eventos":"Robo","descr":"ROBO","alarm_server_date":{"date":"2022-07-04 19:33:38.050000","timezone_type":3,"timezone":"Europe\/Berlin"},"contrato":"30","longitude":"-58.78346300","latitude":"-34.65502400","zip_code":null,"city_name":"MORENO","state_id":"BA ","geo_code":null,"job_no":null,"jobtype_id":null,"jobres_id":null,"color":"yellow"},{"eventype_id":"ALRO","tipo_eventos":"Robo","descr":"ROBO","alarm_server_date":{"date":"2022-07-04 19:30:16.610000","timezone_type":3,"timezone":"Europe\/Berlin"},"contrato":"30","longitude":"-59.09442700","latitude":"-34.28768200","zip_code":null,"city_name":"CAPILLA DEL SE\u00d1OR","state_id":"BA ","geo_code":null,"job_no":null,"jobtype_id":null,"jobres_id":null,"color":"yellow"},{"eventype_id":"ALRO","tipo_eventos":"Robo","descr":"ROBO ENTRADA\/SALIDA","alarm_server_date":{"date":"2022-07-04 19:29:20.417000","timezone_type":3,"timezone":"Europe\/Berlin"},"contrato":"30","longitude":"-58.62424200","latitude":"-34.63711000","zip_code":null,"city_name":"CASTELAR","state_id":"BA ","geo_code":null,"job_no":null,"jobtype_id":null,"jobres_id":null,"color":"yellow"},{"eventype_id":"ALRO","tipo_eventos":"Robo","descr":"ROBO PERIMETRAL","alarm_server_date":{"date":"2022-07-04 19:23:10.540000","timezone_type":3,"timezone":"Europe\/Berlin"},"contrato":"30","longitude":"-60.69521100","latitude":"-31.64134900","zip_code":null,"city_name":"SANTA FE","state_id":"SF ","geo_code":null,"job_no":null,"jobtype_id":null,"jobres_id":null,"color":"yellow"},{"eventype_id":"ALRO","tipo_eventos":"Robo","descr":"ROBO PERIMETRAL","alarm_server_date":{"date":"2022-07-04 19:29:07.307000","timezone_type":3,"timezone":"Europe\/Berlin"},"contrato":"3","longitude":"-58.48067000","latitude":"-34.67751000","zip_code":null,"city_name":"VILLA LUGANO","state_id":"BA ","geo_code":null,"job_no":200632349,"jobtype_id":"P     ","jobres_id":"1A","color":"yellow"},{"eventype_id":"ALRO","tipo_eventos":"Robo","descr":"ROBO PERIMETRAL","alarm_server_date":{"date":"2022-07-04 19:27:55.173000","timezone_type":3,"timezone":"Europe\/Berlin"},"contrato":"30","longitude":"-58.03170600","latitude":"-34.93602900","zip_code":null,"city_name":"MELCHOR ROMERO","state_id":"BA ","geo_code":null,"job_no":null,"jobtype_id":null,"jobres_id":null,"color":"yellow"},{"eventype_id":"ALSA","tipo_eventos":"Sabotaje","descr":"SABOTAJE SENSOR","alarm_server_date":{"date":"2022-07-04 19:47:57.790000","timezone_type":3,"timezone":"Europe\/Berlin"},"contrato":"30","longitude":"-58.52619700","latitude":"-34.86967700","zip_code":null,"city_name":"EZEIZA","state_id":"BA ","geo_code":null,"job_no":null,"jobtype_id":null,"jobres_id":null,"color":"yellow"},{"eventype_id":"ALRO","tipo_eventos":"Robo","descr":"ROBO","alarm_server_date":{"date":"2022-07-04 19:41:31.117000","timezone_type":3,"timezone":"Europe\/Berlin"},"contrato":"11","longitude":"-58.56885200","latitude":"-34.56471400","zip_code":null,"city_name":"VILLA BALLESTER","state_id":"BA ","geo_code":null,"job_no":null,"jobtype_id":null,"jobres_id":null,"color":"yellow"},{"eventype_id":"ALRO","tipo_eventos":"Robo","descr":"ROBO PERIMETRAL","alarm_server_date":{"date":"2022-07-04 19:41:11.960000","timezone_type":3,"timezone":"Europe\/Berlin"},"contrato":"30","longitude":"-58.47558000","latitude":"-34.77143900","zip_code":null,"city_name":"9 DE ABRIL","state_id":"BA ","geo_code":null,"job_no":null,"jobtype_id":null,"jobres_id":null,"color":"yellow"},{"eventype_id":"ALRO","tipo_eventos":"Robo","descr":"ROBO VIDEO VERIFICACION","alarm_server_date":{"date":"2022-07-04 19:45:19.803000","timezone_type":3,"timezone":"Europe\/Berlin"},"contrato":"39","longitude":"-58.26288900","latitude":"-34.80613500","zip_code":null,"city_name":"FLORENCIO VARELA","state_id":"BA ","geo_code":null,"job_no":null,"jobtype_id":null,"jobres_id":null,"color":"yellow"},{"eventype_id":"ALRO","tipo_eventos":"Robo","descr":"ROBO","alarm_server_date":{"date":"2022-07-04 19:31:24.903000","timezone_type":3,"timezone":"Europe\/Berlin"},"contrato":"30","longitude":"-58.67987000","latitude":"-34.66759600","zip_code":null,"city_name":"ITUZAINGO","state_id":"BA ","geo_code":null,"job_no":null,"jobtype_id":null,"jobres_id":null,"color":"yellow"},{"eventype_id":"ALRO","tipo_eventos":"Robo","descr":"ROBO","alarm_server_date":{"date":"2022-07-04 19:32:46.713000","timezone_type":3,"timezone":"Europe\/Berlin"},"contrato":"100","longitude":"-58.42024800","latitude":"-34.74415800","zip_code":null,"city_name":"BANFIELD","state_id":"BA ","geo_code":null,"job_no":null,"jobtype_id":null,"jobres_id":null,"color":"yellow"},{"eventype_id":"ALRO","tipo_eventos":"Robo","descr":"ROBO","alarm_server_date":{"date":"2022-07-04 19:30:29.020000","timezone_type":3,"timezone":"Europe\/Berlin"},"contrato":"30","longitude":"-58.63483700","latitude":"-34.60888100","zip_code":null,"city_name":"VILLA TESEI","state_id":"BA ","geo_code":null,"job_no":null,"jobtype_id":null,"jobres_id":null,"color":"yellow"},{"eventype_id":"ALRO","tipo_eventos":"Robo","descr":"ROBO PERIMETRAL","alarm_server_date":{"date":"2022-07-04 19:40:56.700000","timezone_type":3,"timezone":"Europe\/Berlin"},"contrato":"100","longitude":"-58.41613900","latitude":"-34.75715600","zip_code":null,"city_name":"LOMAS DE ZAMORA","state_id":"BA ","geo_code":null,"job_no":null,"jobtype_id":null,"jobres_id":null,"color":"yellow"},{"eventype_id":"ALCO","tipo_eventos":"Coacci\u00f3n","descr":"COACCION PA","alarm_server_date":{"date":"2022-07-04 19:23:17.807000","timezone_type":3,"timezone":"Europe\/Berlin"},"contrato":"30","longitude":"-58.72572200","latitude":"-34.48664000","zip_code":null,"city_name":"GRAND BOURG","state_id":"BA ","geo_code":null,"job_no":null,"jobtype_id":null,"jobres_id":null,"color":"yellow"},{"eventype_id":"ALRO","tipo_eventos":"Robo","descr":"REMOLQUE MOVIL ACTIVADO","alarm_server_date":{"date":"2022-07-04 19:32:57.833000","timezone_type":3,"timezone":"Europe\/Berlin"},"contrato":"100","longitude":"-58.44801100","latitude":"-34.58665900","zip_code":null,"city_name":"CHACARITA","state_id":"BA ","geo_code":null,"job_no":null,"jobtype_id":null,"jobres_id":null,"color":"yellow"},{"eventype_id":"ALRO","tipo_eventos":"Robo","descr":"ROBO VIDEO VERIFICACION","alarm_server_date":{"date":"2022-07-04 19:50:12.863000","timezone_type":3,"timezone":"Europe\/Berlin"},"contrato":"30","longitude":"-58.39400300","latitude":"-34.58522200","zip_code":null,"city_name":"RECOLETA","state_id":"BA ","geo_code":null,"job_no":null,"jobtype_id":null,"jobres_id":null,"color":"yellow"},{"eventype_id":"ALRO","tipo_eventos":"Robo","descr":"ROBO","alarm_server_date":{"date":"2022-07-04 19:44:56.250000","timezone_type":3,"timezone":"Europe\/Berlin"},"contrato":"33","longitude":"-58.59491000","latitude":"-34.47060000","zip_code":null,"city_name":"SAN FERNANDO","state_id":"BA ","geo_code":null,"job_no":null,"jobtype_id":null,"jobres_id":null,"color":"yellow"},{"eventype_id":"ALPA","tipo_eventos":"P\u00e1nico","descr":"ATRACO","alarm_server_date":{"date":"2022-07-04 19:21:54.487000","timezone_type":3,"timezone":"Europe\/Berlin"},"contrato":"30","longitude":"-58.37811300","latitude":"-34.60094100","zip_code":null,"city_name":"SAN NICOLAS","state_id":"BA ","geo_code":null,"job_no":null,"jobtype_id":null,"jobres_id":null,"color":"yellow"},{"eventype_id":"ALRO","tipo_eventos":"Robo","descr":"ROBO","alarm_server_date":{"date":"2022-07-04 19:44:31.507000","timezone_type":3,"timezone":"Europe\/Berlin"},"contrato":"100","longitude":"-58.40370000","latitude":"-34.75551600","zip_code":null,"city_name":"LOMAS DE ZAMORA","state_id":"BA ","geo_code":null,"job_no":200632354,"jobtype_id":"P     ","jobres_id":"1A","color":"yellow"},{"eventype_id":"ALRO","tipo_eventos":"Robo","descr":"ROBO","alarm_server_date":{"date":"2022-07-04 19:36:54.597000","timezone_type":3,"timezone":"Europe\/Berlin"},"contrato":"30","longitude":"-60.61445600","latitude":"-31.62291800","zip_code":null,"city_name":"COLASTINE NORTE","state_id":"SF ","geo_code":null,"job_no":null,"jobtype_id":null,"jobres_id":null,"color":"yellow"},{"eventype_id":"ALRO","tipo_eventos":"Robo","descr":"ROBO","alarm_server_date":{"date":"2022-07-04 19:30:44.130000","timezone_type":3,"timezone":"Europe\/Berlin"},"contrato":"30","longitude":"-68.04695340","latitude":"-38.95760140","zip_code":null,"city_name":"NEUQUEN","state_id":"NQ ","geo_code":null,"job_no":null,"jobtype_id":null,"jobres_id":null,"color":"yellow"},{"eventype_id":"ALRO","tipo_eventos":"Robo","descr":"REMOLQUE MOVIL ACTIVADO","alarm_server_date":{"date":"2022-07-04 19:37:45.597000","timezone_type":3,"timezone":"Europe\/Berlin"},"contrato":"100","longitude":"-58.75018800","latitude":"-34.47007000","zip_code":null,"city_name":"TORTUGUITAS","state_id":"BA ","geo_code":null,"job_no":null,"jobtype_id":null,"jobres_id":null,"color":"yellow"},{"eventype_id":"ALRO","tipo_eventos":"Robo","descr":"ROBO","alarm_server_date":{"date":"2022-07-04 19:39:46.547000","timezone_type":3,"timezone":"Europe\/Berlin"},"contrato":"11","longitude":"-58.45162206","latitude":"-34.55121356","zip_code":null,"city_name":"NU\u00d1EZ","state_id":"BA ","geo_code":null,"job_no":null,"jobtype_id":null,"jobres_id":null,"color":"yellow"},{"eventype_id":"ALSA","tipo_eventos":"Sabotaje","descr":"ROBO 24 HORAS","alarm_server_date":{"date":"2022-07-04 20:07:24.570000","timezone_type":3,"timezone":"Europe\/Berlin"},"contrato":"100","longitude":"-58.78769200","latitude":"-34.64976700","zip_code":null,"city_name":"MORENO","state_id":"BA ","geo_code":null,"job_no":null,"jobtype_id":null,"jobres_id":null,"color":"green"},{"eventype_id":"ALRO","tipo_eventos":"Robo","descr":"ROBO","alarm_server_date":{"date":"2022-07-04 19:23:34.733000","timezone_type":3,"timezone":"Europe\/Berlin"},"contrato":"30","longitude":"-68.82128300","latitude":"-32.88084800","zip_code":null,"city_name":"GUAYMALLEN","state_id":"MZ ","geo_code":null,"job_no":null,"jobtype_id":null,"jobres_id":null,"color":"yellow"},{"eventype_id":"ALRO","tipo_eventos":"Robo","descr":"ROBO","alarm_server_date":{"date":"2022-07-04 19:22:21.153000","timezone_type":3,"timezone":"Europe\/Berlin"},"contrato":"30","longitude":"-58.47685300","latitude":"-34.55638200","zip_code":null,"city_name":"COGHLAND","state_id":"BA ","geo_code":null,"job_no":null,"jobtype_id":null,"jobres_id":null,"color":"yellow"},{"eventype_id":"ALRO","tipo_eventos":"Robo","descr":"ROBO","alarm_server_date":{"date":"2022-07-04 20:48:40.520000","timezone_type":3,"timezone":"Europe\/Berlin"},"contrato":"100","longitude":"-58.52895900","latitude":"-34.62767700","zip_code":"","city_name":"VERSAILLES","state_id":"BA ","geo_code":"","job_no":null,"jobtype_id":null,"jobres_id":null,"color":"green"},{"eventype_id":"ALRO","tipo_eventos":"Robo","descr":"ROBO ENTRADA\/SALIDA","alarm_server_date":{"date":"2022-07-04 19:31:34.640000","timezone_type":3,"timezone":"Europe\/Berlin"},"contrato":"13","longitude":"-58.40473500","latitude":"-34.58169400","zip_code":"","city_name":"PALERMO","state_id":"BA ","geo_code":"","job_no":null,"jobtype_id":null,"jobres_id":null,"color":"yellow"},{"eventype_id":"ALRO","tipo_eventos":"Robo","descr":"ROBO","alarm_server_date":{"date":"2022-07-04 20:19:45.893000","timezone_type":3,"timezone":"Europe\/Berlin"},"contrato":"33","longitude":"-58.52683700","latitude":"-34.44720700","zip_code":"","city_name":"SAN FERNANDO","state_id":"BA ","geo_code":"","job_no":null,"jobtype_id":null,"jobres_id":null,"color":"green"},{"eventype_id":"ALRO","tipo_eventos":"Robo","descr":"ROBO","alarm_server_date":{"date":"2022-07-04 19:22:16.607000","timezone_type":3,"timezone":"Europe\/Berlin"},"contrato":"26","longitude":"-58.48920830","latitude":"-34.64518020","zip_code":"1407","city_name":"PARQUE AVELLANEDA","state_id":"BA ","geo_code":"14","job_no":null,"jobtype_id":null,"jobres_id":null,"color":"yellow"},{"eventype_id":"ALRO","tipo_eventos":"Robo","descr":"ROBO","alarm_server_date":{"date":"2022-07-04 19:26:40.207000","timezone_type":3,"timezone":"Europe\/Berlin"},"contrato":"100","longitude":"-58.87936200","latitude":"-34.41935700","zip_code":"1631","city_name":"VILLA ROSA","state_id":"BA ","geo_code":"16","job_no":null,"jobtype_id":null,"jobres_id":null,"color":"yellow"},{"eventype_id":"ALRO","tipo_eventos":"Robo","descr":"ROBO VIDEO VERIFICACION","alarm_server_date":{"date":"2022-07-04 19:35:48.580000","timezone_type":3,"timezone":"Europe\/Berlin"},"contrato":"30","longitude":"-58.51798600","latitude":"-34.51063200","zip_code":"1636","city_name":"OLIVOS","state_id":"BA ","geo_code":"16","job_no":null,"jobtype_id":null,"jobres_id":null,"color":"yellow"},{"eventype_id":"ALRO","tipo_eventos":"Robo","descr":"ROBO","alarm_server_date":{"date":"2022-07-04 19:24:29.127000","timezone_type":3,"timezone":"Europe\/Berlin"},"contrato":"30","longitude":"-58.58409500","latitude":"-34.63173700","zip_code":"1706","city_name":"HAEDO","state_id":"BA ","geo_code":"17","job_no":null,"jobtype_id":null,"jobres_id":null,"color":"yellow"},{"eventype_id":"ALSA","tipo_eventos":"Sabotaje","descr":"SABOTAJE SENSOR","alarm_server_date":{"date":"2022-07-04 20:14:53.003000","timezone_type":3,"timezone":"Europe\/Berlin"},"contrato":"100","longitude":"-58.70002100","latitude":"-34.62178100","zip_code":"1713","city_name":"ITUZAINGO","state_id":"BA ","geo_code":"17","job_no":200632366,"jobtype_id":"P     ","jobres_id":"1A","color":"green"},{"eventype_id":"ALRO","tipo_eventos":"Robo","descr":"ROBO","alarm_server_date":{"date":"2022-07-04 20:04:21.670000","timezone_type":3,"timezone":"Europe\/Berlin"},"contrato":"100","longitude":"-58.67569370","latitude":"-34.65438110","zip_code":"1714","city_name":"ITUZAINGO","state_id":"BA ","geo_code":"17","job_no":null,"jobtype_id":null,"jobres_id":null,"color":"green"},{"eventype_id":"ALRO","tipo_eventos":"Robo","descr":"ROBO VIDEO VERIFICACION","alarm_server_date":{"date":"2022-07-04 19:59:36.637000","timezone_type":3,"timezone":"Europe\/Berlin"},"contrato":"100","longitude":"-58.78568900","latitude":"-34.65032800","zip_code":"1742","city_name":"MORENO","state_id":"BA ","geo_code":"17","job_no":null,"jobtype_id":null,"jobres_id":null,"color":"green"},{"eventype_id":"ALRO","tipo_eventos":"Robo","descr":"ROBO","alarm_server_date":{"date":"2022-07-04 19:41:35.807000","timezone_type":3,"timezone":"Europe\/Berlin"},"contrato":"30","longitude":"-58.58713336","latitude":"-34.74900098","zip_code":"1757","city_name":"LAFERRERE","state_id":"BA ","geo_code":"17","job_no":null,"jobtype_id":null,"jobres_id":null,"color":"yellow"},{"eventype_id":"ALRO","tipo_eventos":"Robo","descr":"ROBO","alarm_server_date":{"date":"2022-07-04 20:49:03.967000","timezone_type":3,"timezone":"Europe\/Berlin"},"contrato":"100","longitude":"-58.61430680","latitude":"-34.77835930","zip_code":"1759","city_name":"GONZALEZ CATAN","state_id":"BA ","geo_code":"17","job_no":null,"jobtype_id":null,"jobres_id":null,"color":"green"},{"eventype_id":"ALRO","tipo_eventos":"Robo","descr":"ROBO PERIMETRAL","alarm_server_date":{"date":"2022-07-04 20:27:27.363000","timezone_type":3,"timezone":"Europe\/Berlin"},"contrato":"31","longitude":"-58.27560300","latitude":"-34.76188300","zip_code":"1882","city_name":"EZPELETA","state_id":"BA ","geo_code":"18","job_no":null,"jobtype_id":null,"jobres_id":null,"color":"green"},{"eventype_id":"ALRO","tipo_eventos":"Robo","descr":"ROBO","alarm_server_date":{"date":"2022-07-04 20:28:37.423000","timezone_type":3,"timezone":"Europe\/Berlin"},"contrato":"30","longitude":"-58.24920879","latitude":"-34.80583269","zip_code":"1888","city_name":"FLORENCIO VARELA","state_id":"BA ","geo_code":"18","job_no":null,"jobtype_id":null,"jobres_id":null,"color":"green"},{"eventype_id":"ALRO","tipo_eventos":"Robo","descr":"ROBO","alarm_server_date":{"date":"2022-07-04 19:56:53.653000","timezone_type":3,"timezone":"Europe\/Berlin"},"contrato":"100","longitude":"-60.68284150","latitude":"-32.91453010","zip_code":"2000","city_name":"ROSARIO","state_id":"SF ","geo_code":"20","job_no":null,"jobtype_id":null,"jobres_id":null,"color":"green"},{"eventype_id":"ALRO","tipo_eventos":"Robo","descr":"ROBO","alarm_server_date":{"date":"2022-07-04 20:30:00.823000","timezone_type":3,"timezone":"Europe\/Berlin"},"contrato":"30","longitude":"-60.64502902","latitude":"-32.97686307","zip_code":"2000","city_name":"ROSARIO","state_id":"SF ","geo_code":"20","job_no":null,"jobtype_id":null,"jobres_id":null,"color":"green"},{"eventype_id":"ALRO","tipo_eventos":"Robo","descr":"ROBO","alarm_server_date":{"date":"2022-07-04 19:29:42.530000","timezone_type":3,"timezone":"Europe\/Berlin"},"contrato":"30","longitude":"-60.64810700","latitude":"-32.99412710","zip_code":"2000","city_name":"ROSARIO","state_id":"SF ","geo_code":"20","job_no":null,"jobtype_id":null,"jobres_id":null,"color":"yellow"},{"eventype_id":"ALRO","tipo_eventos":"Robo","descr":"ROBO","alarm_server_date":{"date":"2022-07-04 19:28:27.323000","timezone_type":3,"timezone":"Europe\/Berlin"},"contrato":"30","longitude":"-58.96448158","latitude":"-27.45038823","zip_code":"3500","city_name":"RESISTENCIA","state_id":"CC ","geo_code":"35","job_no":null,"jobtype_id":null,"jobres_id":null,"color":"yellow"},{"eventype_id":"ALRO","tipo_eventos":"Robo","descr":"ROBO (Climax)","alarm_server_date":{"date":"2022-07-04 20:22:55.787000","timezone_type":3,"timezone":"Europe\/Berlin"},"contrato":"30","longitude":null,"latitude":null,"zip_code":"7600","city_name":"MAR DEL PLATA","state_id":"MDQ","geo_code":"76","job_no":null,"jobtype_id":null,"jobres_id":null,"color":"green"},{"eventype_id":"ALRO","tipo_eventos":"Robo","descr":"ROBO","alarm_server_date":{"date":"2022-07-04 19:26:42.563000","timezone_type":3,"timezone":"Europe\/Berlin"},"contrato":"30","longitude":"-68.10507400","latitude":"-38.85818100","zip_code":"8309","city_name":"CENTENARIO","state_id":"NQ ","geo_code":"83","job_no":null,"jobtype_id":null,"jobres_id":null,"color":"yellow"},{"eventype_id":"ALRO","tipo_eventos":"Robo","descr":"ROBO PERIMETRAL","alarm_server_date":{"date":"2022-07-04 20:51:11.353000","timezone_type":3,"timezone":"Europe\/Berlin"},"contrato":"16","longitude":"-58.38427500","latitude":"-34.60525300","zip_code":null,"city_name":"SAN NICOLAS","state_id":"BA ","geo_code":null,"job_no":null,"jobtype_id":null,"jobres_id":null,"color":"green"},{"eventype_id":"ALRO","tipo_eventos":"Robo","descr":"ROBO","alarm_server_date":{"date":"2022-07-04 20:49:56.990000","timezone_type":3,"timezone":"Europe\/Berlin"},"contrato":"100","longitude":"-58.77429200","latitude":"-34.67454700","zip_code":null,"city_name":"MERLO","state_id":"BA ","geo_code":null,"job_no":null,"jobtype_id":null,"jobres_id":null,"color":"green"},{"eventype_id":"ALSA","tipo_eventos":"Sabotaje","descr":"SABOTAJE PA","alarm_server_date":{"date":"2022-07-04 20:36:40.593000","timezone_type":3,"timezone":"Europe\/Berlin"},"contrato":"100","longitude":"-58.49850800","latitude":"-34.70380800","zip_code":null,"city_name":"TAPIALES","state_id":"BA ","geo_code":null,"job_no":200632374,"jobtype_id":"P     ","jobres_id":null,"color":"green"},{"eventype_id":"ALRO","tipo_eventos":"Robo","descr":"ROBO","alarm_server_date":{"date":"2022-07-04 20:47:02.160000","timezone_type":3,"timezone":"Europe\/Berlin"},"contrato":"100","longitude":"-58.65771700","latitude":"-34.64719400","zip_code":null,"city_name":"CASTELAR","state_id":"BA ","geo_code":null,"job_no":null,"jobtype_id":null,"jobres_id":null,"color":"green"},{"eventype_id":"ALSA","tipo_eventos":"Sabotaje","descr":"SABOTAJE SENSOR","alarm_server_date":{"date":"2022-07-04 20:44:09.270000","timezone_type":3,"timezone":"Europe\/Berlin"},"contrato":"21","longitude":"-58.45294160","latitude":"-34.56829970","zip_code":null,"city_name":"COLEGIALES","state_id":"BA ","geo_code":null,"job_no":null,"jobtype_id":null,"jobres_id":null,"color":"green"},{"eventype_id":"ALRO","tipo_eventos":"Robo","descr":"ROBO","alarm_server_date":{"date":"2022-07-04 20:07:19.587000","timezone_type":3,"timezone":"Europe\/Berlin"},"contrato":"30","longitude":"-60.72038410","latitude":"-31.57014900","zip_code":null,"city_name":"SANTA FE","state_id":"BA ","geo_code":null,"job_no":null,"jobtype_id":null,"jobres_id":null,"color":"green"},{"eventype_id":"ALSA","tipo_eventos":"Sabotaje","descr":"SABOTAJE SENSOR","alarm_server_date":{"date":"2022-07-04 20:01:28.787000","timezone_type":3,"timezone":"Europe\/Berlin"},"contrato":"26","longitude":"-58.51507300","latitude":"-34.64118600","zip_code":null,"city_name":"LINIERS","state_id":"BA ","geo_code":null,"job_no":null,"jobtype_id":null,"jobres_id":null,"color":"green"},{"eventype_id":"ALSA","tipo_eventos":"Sabotaje","descr":"SABOTAJE SENSOR","alarm_server_date":{"date":"2022-07-04 20:28:29.660000","timezone_type":3,"timezone":"Europe\/Berlin"},"contrato":"26","longitude":"-58.51507300","latitude":"-34.64118600","zip_code":null,"city_name":"LINIERS","state_id":"BA ","geo_code":null,"job_no":null,"jobtype_id":null,"jobres_id":null,"color":"green"},{"eventype_id":"ALSA","tipo_eventos":"Sabotaje","descr":"SABOTAJE SENSOR","alarm_server_date":{"date":"2022-07-04 20:28:57.263000","timezone_type":3,"timezone":"Europe\/Berlin"},"contrato":"26","longitude":"-58.51507300","latitude":"-34.64118600","zip_code":null,"city_name":"LINIERS","state_id":"BA ","geo_code":null,"job_no":null,"jobtype_id":null,"jobres_id":null,"color":"green"},